[
  {
    "cityId": 2,
    "cityName": "北京市",
    "province": "北京市",
    "longitude": 116.407112,
    "latitude": 39.904138
  },
  {
    "cityId": 3,
    "cityName": "北京市朝阳区",
    "province": "北京市",
    "longitude": 116.443244,
    "latitude": 39.921224
  },
  {
    "cityId": 4,
    "cityName": "北京市通州区",
    "province": "北京市",
    "longitude": 116.656469,
    "latitude": 39.910107
  },
  {
    "cityId": 5,
    "cityName": "昌平区",
    "province": "北京市",
    "longitude": 116.23128,
    "latitude": 40.220526
  },
  {
    "cityId": 6,
    "cityName": "顺义区",
    "province": "北京市",
    "longitude": 116.655423,
    "latitude": 40.130567
  },
  {
    "cityId": 7,
    "cityName": "怀柔区",
    "province": "北京市",
    "longitude": 116.631928,
    "latitude": 40.316276
  },
  {
    "cityId": 8,
    "cityName": "大兴区",
    "province": "北京市",
    "longitude": 116.341363,
    "latitude": 39.72677
  },
  {
    "cityId": 9,
    "cityName": "平谷区",
    "province": "北京市",
    "longitude": 117.121046,
    "latitude": 40.140503
  },
  {
    "cityId": 10,
    "cityName": "密云区",
    "province": "北京市",
    "longitude": 116.842801,
    "latitude": 40.376238
  },
  {
    "cityId": 11,
    "cityName": "延庆区",
    "province": "北京市",
    "longitude": 115.973795,
    "latitude": 40.455164
  },
  {
    "cityId": 12,
    "cityName": "丰台区",
    "province": "北京市",
    "longitude": 116.286181,
    "latitude": 39.858452
  },
  {
    "cityId": 13,
    "cityName": "石景山区",
    "province": "北京市",
    "longitude": 116.222584,
    "latitude": 39.905745
  },
  {
    "cityId": 14,
    "cityName": "房山区",
    "province": "北京市",
    "longitude": 116.138993,
    "latitude": 39.74695
  },
  {
    "cityId": 15,
    "cityName": "门头沟区",
    "province": "北京市",
    "longitude": 116.09997,
    "latitude": 39.939807
  },
  {
    "cityId": 16,
    "cityName": "八达岭",
    "province": "北京市",
    "longitude": 115.966303,
    "latitude": 40.363739
  },
  {
    "cityId": 17,
    "cityName": "佛爷顶",
    "province": "北京市",
    "longitude": 116.135206,
    "latitude": 40.60793859
  },
  {
    "cityId": 18,
    "cityName": "汤河口",
    "province": "北京市",
    "longitude": 116.608715,
    "latitude": 40.749923
  },
  {
    "cityId": 20,
    "cityName": "斋堂",
    "province": "北京市",
    "longitude": 115.697193,
    "latitude": 39.972997
  },
  {
    "cityId": 21,
    "cityName": "霞云岭",
    "province": "北京市",
    "longitude": 115.745277,
    "latitude": 39.727196
  },
  {
    "cityId": 22,
    "cityName": "海淀区",
    "province": "北京市",
    "longitude": 116.297828,
    "latitude": 39.959738
  },
  {
    "cityId": 24,
    "cityName": "天津市",
    "province": "天津市",
    "longitude": 117.1999887,
    "latitude": 39.13000573
  },
  {
    "cityId": 25,
    "cityName": "宝坻区",
    "province": "天津市",
    "longitude": 117.30242,
    "latitude": 39.725895
  },
  {
    "cityId": 26,
    "cityName": "武清区",
    "province": "天津市",
    "longitude": 117.06313,
    "latitude": 39.378593
  },
  {
    "cityId": 27,
    "cityName": "宁河区",
    "province": "天津市",
    "longitude": 117.8315,
    "latitude": 39.33189
  },
  {
    "cityId": 28,
    "cityName": "静海区",
    "province": "天津市",
    "longitude": 116.91908,
    "latitude": 38.934357
  },
  {
    "cityId": 29,
    "cityName": "蓟州区",
    "province": "天津市",
    "longitude": 117.40182,
    "latitude": 40.043865
  },
  {
    "cityId": 30,
    "cityName": "东丽区",
    "province": "天津市",
    "longitude": 117.314351,
    "latitude": 39.09148198
  },
  {
    "cityId": 31,
    "cityName": "西青区",
    "province": "天津市",
    "longitude": 117.0179721,
    "latitude": 39.14530551
  },
  {
    "cityId": 32,
    "cityName": "北辰区",
    "province": "天津市",
    "longitude": 117.13244,
    "latitude": 39.2289329
  },
  {
    "cityId": 33,
    "cityName": "汉沽区（现滨海新区）",
    "province": "天津市",
    "longitude": 117.806575,
    "latitude": 39.27981783
  },
  {
    "cityId": 34,
    "cityName": "津南区",
    "province": "天津市",
    "longitude": 117.357396,
    "latitude": 38.9397352
  },
  {
    "cityId": 35,
    "cityName": "塘沽区（现滨海新区）",
    "province": "天津市",
    "longitude": 117.6011346,
    "latitude": 39.02398716
  },
  {
    "cityId": 36,
    "cityName": "大港区（现滨海新区）",
    "province": "天津市",
    "longitude": 117.464504,
    "latitude": 38.8418017
  },
  {
    "cityId": 37,
    "cityName": "滨海新区",
    "province": "天津市",
    "longitude": 117.710776,
    "latitude": 39.00554381
  },
  {
    "cityId": 39,
    "cityName": "上海市",
    "province": "上海市",
    "longitude": 121.473523,
    "latitude": 31.230427
  },
  {
    "cityId": 40,
    "cityName": "嘉定区",
    "province": "上海市",
    "longitude": 121.265395,
    "latitude": 31.375623
  },
  {
    "cityId": 41,
    "cityName": "浦东新区",
    "province": "上海市",
    "longitude": 121.544677,
    "latitude": 31.221931
  },
  {
    "cityId": 42,
    "cityName": "金山区",
    "province": "上海市",
    "longitude": 121.341774,
    "latitude": 30.741879
  },
  {
    "cityId": 43,
    "cityName": "松江区",
    "province": "上海市",
    "longitude": 121.227479,
    "latitude": 31.032178
  },
  {
    "cityId": 44,
    "cityName": "青浦区",
    "province": "上海市",
    "longitude": 121.124117,
    "latitude": 31.150734
  },
  {
    "cityId": 45,
    "cityName": "南汇区（现浦东新区）",
    "province": "上海市",
    "longitude": 121.763009,
    "latitude": 31.044919
  },
  {
    "cityId": 46,
    "cityName": "奉贤区",
    "province": "上海市",
    "longitude": 121.474146,
    "latitude": 30.917961
  },
  {
    "cityId": 47,
    "cityName": "崇明区",
    "province": "上海市",
    "longitude": 121.397457,
    "latitude": 31.623653
  },
  {
    "cityId": 48,
    "cityName": "上海市宝山区",
    "province": "上海市",
    "longitude": 121.489871,
    "latitude": 31.405488
  },
  {
    "cityId": 49,
    "cityName": "徐汇区",
    "province": "上海市",
    "longitude": 121.440114,
    "latitude": 31.192438
  },
  {
    "cityId": 50,
    "cityName": "闵行区",
    "province": "上海市",
    "longitude": 121.381375,
    "latitude": 31.112732
  },
  {
    "cityId": 52,
    "cityName": "重庆市",
    "province": "重庆市",
    "longitude": 106.5227016,
    "latitude": 29.54407809
  },
  {
    "cityId": 53,
    "cityName": "黔江区",
    "province": "重庆市",
    "longitude": 108.775523,
    "latitude": 29.52847782
  },
  {
    "cityId": 54,
    "cityName": "北碚区",
    "province": "重庆市",
    "longitude": 106.4394512,
    "latitude": 29.82971651
  },
  {
    "cityId": 57,
    "cityName": "巴南区",
    "province": "重庆市",
    "longitude": 106.52355,
    "latitude": 29.379204
  },
  {
    "cityId": 59,
    "cityName": "长寿区",
    "province": "重庆市",
    "longitude": 107.06115,
    "latitude": 29.833637
  },
  {
    "cityId": 60,
    "cityName": "合川区",
    "province": "重庆市",
    "longitude": 106.2682457,
    "latitude": 29.99503117
  },
  {
    "cityId": 61,
    "cityName": "永川区",
    "province": "重庆市",
    "longitude": 105.89661,
    "latitude": 29.360287
  },
  {
    "cityId": 62,
    "cityName": "江津区",
    "province": "重庆市",
    "longitude": 106.25296,
    "latitude": 29.281507
  },
  {
    "cityId": 63,
    "cityName": "南川区",
    "province": "重庆市",
    "longitude": 107.10468,
    "latitude": 29.168348
  },
  {
    "cityId": 64,
    "cityName": "綦江区",
    "province": "重庆市",
    "longitude": 106.63931,
    "latitude": 29.025259
  },
  {
    "cityId": 65,
    "cityName": "潼南区",
    "province": "重庆市",
    "longitude": 105.821,
    "latitude": 30.173649
  },
  {
    "cityId": 66,
    "cityName": "铜梁区",
    "province": "重庆市",
    "longitude": 106.0522419,
    "latitude": 29.84469541
  },
  {
    "cityId": 67,
    "cityName": "大足区",
    "province": "重庆市",
    "longitude": 105.7061781,
    "latitude": 29.7029426
  },
  {
    "cityId": 68,
    "cityName": "荣昌区",
    "province": "重庆市",
    "longitude": 105.5774836,
    "latitude": 29.39938459
  },
  {
    "cityId": 69,
    "cityName": "璧山区",
    "province": "重庆市",
    "longitude": 106.21726,
    "latitude": 29.599508
  },
  {
    "cityId": 70,
    "cityName": "垫江县",
    "province": "重庆市",
    "longitude": 107.35619,
    "latitude": 30.323742
  },
  {
    "cityId": 71,
    "cityName": "武隆区",
    "province": "重庆市",
    "longitude": 107.7425523,
    "latitude": 29.32029555
  },
  {
    "cityId": 72,
    "cityName": "丰都县",
    "province": "重庆市",
    "longitude": 107.71456,
    "latitude": 29.887396
  },
  {
    "cityId": 73,
    "cityName": "城口县",
    "province": "重庆市",
    "longitude": 108.66972,
    "latitude": 31.950069
  },
  {
    "cityId": 74,
    "cityName": "梁平区",
    "province": "重庆市",
    "longitude": 107.78897,
    "latitude": 30.666655
  },
  {
    "cityId": 75,
    "cityName": "开州区",
    "province": "重庆市",
    "longitude": 108.4108077,
    "latitude": 31.19530729
  },
  {
    "cityId": 76,
    "cityName": "巫溪县",
    "province": "重庆市",
    "longitude": 109.62247,
    "latitude": 31.406134
  },
  {
    "cityId": 77,
    "cityName": "巫山县",
    "province": "重庆市",
    "longitude": 109.88886,
    "latitude": 31.081345
  },
  {
    "cityId": 78,
    "cityName": "奉节县",
    "province": "重庆市",
    "longitude": 109.52475,
    "latitude": 31.054707
  },
  {
    "cityId": 79,
    "cityName": "云阳县",
    "province": "重庆市",
    "longitude": 108.8890232,
    "latitude": 30.95997021
  },
  {
    "cityId": 80,
    "cityName": "忠县",
    "province": "重庆市",
    "longitude": 108.0239708,
    "latitude": 30.28927953
  },
  {
    "cityId": 81,
    "cityName": "石柱土家族自治县",
    "province": "重庆市",
    "longitude": 108.1085412,
    "latitude": 29.99609165
  },
  {
    "cityId": 82,
    "cityName": "秀山土家族苗族自治县",
    "province": "重庆市",
    "longitude": 108.98788,
    "latitude": 28.450329
  },
  {
    "cityId": 83,
    "cityName": "酉阳土家族苗族自治县",
    "province": "重庆市",
    "longitude": 108.766,
    "latitude": 28.841646
  },
  {
    "cityId": 84,
    "cityName": "彭水苗族土家族自治县",
    "province": "重庆市",
    "longitude": 108.1536477,
    "latitude": 29.30138502
  },
  {
    "cityId": 85,
    "cityName": "万盛经济技术开发区",
    "province": "重庆市",
    "longitude": 106.926267,
    "latitude": 28.95137496
  },
  {
    "cityId": 86,
    "cityName": "渝北区",
    "province": "重庆市",
    "longitude": 106.631052,
    "latitude": 29.72353673
  },
  {
    "cityId": 87,
    "cityName": "涪陵区",
    "province": "重庆市",
    "longitude": 107.389298,
    "latitude": 29.71146201
  },
  {
    "cityId": 89,
    "cityName": "万州区",
    "province": "重庆市",
    "longitude": 108.408746,
    "latitude": 30.81613894
  },
  {
    "cityId": 94,
    "cityName": "沈阳市",
    "province": "辽宁省",
    "longitude": 123.3833914,
    "latitude": 41.80199341
  },
  {
    "cityId": 96,
    "cityName": "苏家屯区",
    "province": "辽宁省",
    "longitude": 123.3430472,
    "latitude": 41.66006506
  },
  {
    "cityId": 97,
    "cityName": "新民市",
    "province": "辽宁省",
    "longitude": 122.8218107,
    "latitude": 41.99049937
  },
  {
    "cityId": 98,
    "cityName": "辽中区",
    "province": "辽宁省",
    "longitude": 122.7291929,
    "latitude": 41.5063844
  },
  {
    "cityId": 99,
    "cityName": "法库县",
    "province": "辽宁省",
    "longitude": 123.4057147,
    "latitude": 42.50166736
  },
  {
    "cityId": 100,
    "cityName": "康平县",
    "province": "辽宁省",
    "longitude": 123.351663,
    "latitude": 42.74102473
  },
  {
    "cityId": 101,
    "cityName": "沈北新区",
    "province": "辽宁省",
    "longitude": 123.52,
    "latitude": 42.05
  },
  {
    "cityId": 102,
    "cityName": "弓长岭区",
    "province": "辽宁省",
    "longitude": 123.45,
    "latitude": 41.13
  },
  {
    "cityId": 104,
    "cityName": "大连市",
    "province": "辽宁省",
    "longitude": 121.5765993,
    "latitude": 38.94382049
  },
  {
    "cityId": 105,
    "cityName": "旅顺口区",
    "province": "辽宁省",
    "longitude": 121.2527074,
    "latitude": 38.80257692
  },
  {
    "cityId": 106,
    "cityName": "金州区",
    "province": "辽宁省",
    "longitude": 121.7169673,
    "latitude": 39.09301065
  },
  {
    "cityId": 107,
    "cityName": "瓦房店市",
    "province": "辽宁省",
    "longitude": 122.0067148,
    "latitude": 39.61993771
  },
  {
    "cityId": 108,
    "cityName": "普兰店区",
    "province": "辽宁省",
    "longitude": 121.9600285,
    "latitude": 39.39445437
  },
  {
    "cityId": 109,
    "cityName": "庄河市",
    "province": "辽宁省",
    "longitude": 122.9719618,
    "latitude": 39.6890576
  },
  {
    "cityId": 110,
    "cityName": "长海县",
    "province": "辽宁省",
    "longitude": 122.5781857,
    "latitude": 39.26915784
  },
  {
    "cityId": 111,
    "cityName": "皮口镇",
    "province": "辽宁省",
    "longitude": 122.3216914,
    "latitude": 39.42552599
  },
  {
    "cityId": 113,
    "cityName": "鞍山市",
    "province": "辽宁省",
    "longitude": 122.9770044,
    "latitude": 41.11529924
  },
  {
    "cityId": 114,
    "cityName": "海城市",
    "province": "辽宁省",
    "longitude": 122.7490845,
    "latitude": 40.85263353
  },
  {
    "cityId": 115,
    "cityName": "台安县",
    "province": "辽宁省",
    "longitude": 122.4252696,
    "latitude": 41.38450102
  },
  {
    "cityId": 116,
    "cityName": "岫岩满族自治县",
    "province": "辽宁省",
    "longitude": 123.2812544,
    "latitude": 40.27954386
  },
  {
    "cityId": 118,
    "cityName": "抚顺市",
    "province": "辽宁省",
    "longitude": 123.9055447,
    "latitude": 41.8591993
  },
  {
    "cityId": 120,
    "cityName": "清原满族自治县",
    "province": "辽宁省",
    "longitude": 124.9230072,
    "latitude": 42.09783933
  },
  {
    "cityId": 121,
    "cityName": "新宾满族自治县",
    "province": "辽宁省",
    "longitude": 125.0316709,
    "latitude": 41.72078382
  },
  {
    "cityId": 122,
    "cityName": "章党镇",
    "province": "辽宁省",
    "longitude": 124.078,
    "latitude": 41.9083
  },
  {
    "cityId": 124,
    "cityName": "本溪市",
    "province": "辽宁省",
    "longitude": 123.7649534,
    "latitude": 41.30149307
  },
  {
    "cityId": 125,
    "cityName": "本溪满族自治县",
    "province": "辽宁省",
    "longitude": 124.1112368,
    "latitude": 41.30299231
  },
  {
    "cityId": 126,
    "cityName": "桓仁满族自治县",
    "province": "辽宁省",
    "longitude": 125.3487347,
    "latitude": 41.25391681
  },
  {
    "cityId": 127,
    "cityName": "草河口镇",
    "province": "辽宁省",
    "longitude": 123.911,
    "latitude": 40.8788
  },
  {
    "cityId": 129,
    "cityName": "丹东市",
    "province": "辽宁省",
    "longitude": 124.3568851,
    "latitude": 40.10989985
  },
  {
    "cityId": 130,
    "cityName": "东港市",
    "province": "辽宁省",
    "longitude": 124.14217,
    "latitude": 39.869289
  },
  {
    "cityId": 131,
    "cityName": "凤城市",
    "province": "辽宁省",
    "longitude": 124.0605137,
    "latitude": 40.45866085
  },
  {
    "cityId": 132,
    "cityName": "宽甸满族自治县",
    "province": "辽宁省",
    "longitude": 124.7793151,
    "latitude": 40.72807619
  },
  {
    "cityId": 135,
    "cityName": "锦州市",
    "province": "辽宁省",
    "longitude": 121.1441509,
    "latitude": 41.11587866
  },
  {
    "cityId": 136,
    "cityName": "凌海市",
    "province": "辽宁省",
    "longitude": 121.35494,
    "latitude": 41.171371
  },
  {
    "cityId": 137,
    "cityName": "北镇市",
    "province": "辽宁省",
    "longitude": 121.7866,
    "latitude": 41.595165
  },
  {
    "cityId": 138,
    "cityName": "黑山县",
    "province": "辽宁省",
    "longitude": 122.1099892,
    "latitude": 41.68798504
  },
  {
    "cityId": 139,
    "cityName": "义县",
    "province": "辽宁省",
    "longitude": 121.24303,
    "latitude": 41.539394
  },
  {
    "cityId": 142,
    "cityName": "营口市",
    "province": "辽宁省",
    "longitude": 122.277726,
    "latitude": 40.68639574
  },
  {
    "cityId": 143,
    "cityName": "盖州市",
    "province": "辽宁省",
    "longitude": 122.3653196,
    "latitude": 40.3983343
  },
  {
    "cityId": 144,
    "cityName": "大石桥市",
    "province": "辽宁省",
    "longitude": 122.4996261,
    "latitude": 40.6334283
  },
  {
    "cityId": 146,
    "cityName": "阜新市",
    "province": "辽宁省",
    "longitude": 121.6469168,
    "latitude": 42.01333533
  },
  {
    "cityId": 147,
    "cityName": "彰武县",
    "province": "辽宁省",
    "longitude": 122.531819,
    "latitude": 42.38424582
  },
  {
    "cityId": 150,
    "cityName": "辽阳市",
    "province": "辽宁省",
    "longitude": 123.1713968,
    "latitude": 41.26606879
  },
  {
    "cityId": 151,
    "cityName": "灯塔市",
    "province": "辽宁省",
    "longitude": 123.31554,
    "latitude": 41.422836
  },
  {
    "cityId": 152,
    "cityName": "辽阳县",
    "province": "辽宁省",
    "longitude": 123.07435,
    "latitude": 41.208042
  },
  {
    "cityId": 154,
    "cityName": "盘锦市",
    "province": "辽宁省",
    "longitude": 122.0509175,
    "latitude": 41.18020029
  },
  {
    "cityId": 155,
    "cityName": "大洼区",
    "province": "辽宁省",
    "longitude": 122.0671251,
    "latitude": 40.99263479
  },
  {
    "cityId": 156,
    "cityName": "盘山县",
    "province": "辽宁省",
    "longitude": 121.99664,
    "latitude": 41.25271772
  },
  {
    "cityId": 158,
    "cityName": "铁岭市",
    "province": "辽宁省",
    "longitude": 123.831052,
    "latitude": 42.29094083
  },
  {
    "cityId": 160,
    "cityName": "开原市",
    "province": "辽宁省",
    "longitude": 124.0381,
    "latitude": 42.536697
  },
  {
    "cityId": 162,
    "cityName": "西丰县",
    "province": "辽宁省",
    "longitude": 124.7156118,
    "latitude": 42.734058
  },
  {
    "cityId": 163,
    "cityName": "昌图县",
    "province": "辽宁省",
    "longitude": 124.1289231,
    "latitude": 42.7723948
  },
  {
    "cityId": 164,
    "cityName": "调兵山市",
    "province": "辽宁省",
    "longitude": 123.55,
    "latitude": 42.47
  },
  {
    "cityId": 165,
    "cityName": "铁法市（现调兵山市）",
    "province": "辽宁省",
    "longitude": 123.5420194,
    "latitude": 42.44775833
  },
  {
    "cityId": 167,
    "cityName": "朝阳市",
    "province": "辽宁省",
    "longitude": 120.4561008,
    "latitude": 41.57877068
  },
  {
    "cityId": 168,
    "cityName": "北票市",
    "province": "辽宁省",
    "longitude": 120.7646033,
    "latitude": 41.80841075
  },
  {
    "cityId": 169,
    "cityName": "凌源市",
    "province": "辽宁省",
    "longitude": 119.3982997,
    "latitude": 41.23965656
  },
  {
    "cityId": 171,
    "cityName": "建平镇",
    "province": "辽宁省",
    "longitude": 119.6454029,
    "latitude": 41.40479428
  },
  {
    "cityId": 172,
    "cityName": "喀喇沁左翼蒙古族自治县",
    "province": "辽宁省",
    "longitude": 119.7350255,
    "latitude": 41.12524417
  },
  {
    "cityId": 173,
    "cityName": "调兵山市羊山镇",
    "province": "辽宁省",
    "longitude": 120.3765972,
    "latitude": 41.19046389
  },
  {
    "cityId": 174,
    "cityName": "建平县",
    "province": "辽宁省",
    "longitude": 119.63,
    "latitude": 41.4
  },
  {
    "cityId": 176,
    "cityName": "葫芦岛市",
    "province": "辽宁省",
    "longitude": 120.8444999,
    "latitude": 40.74091375
  },
  {
    "cityId": 177,
    "cityName": "兴城市",
    "province": "辽宁省",
    "longitude": 120.7044054,
    "latitude": 40.61640065
  },
  {
    "cityId": 178,
    "cityName": "绥中县",
    "province": "辽宁省",
    "longitude": 120.3447253,
    "latitude": 40.32335315
  },
  {
    "cityId": 179,
    "cityName": "建昌县",
    "province": "辽宁省",
    "longitude": 119.7957003,
    "latitude": 40.80752185
  },
  {
    "cityId": 182,
    "cityName": "长春市",
    "province": "吉林省",
    "longitude": 125.3500003,
    "latitude": 43.86666945
  },
  {
    "cityId": 183,
    "cityName": "双阳区",
    "province": "吉林省",
    "longitude": 125.6708801,
    "latitude": 43.52247753
  },
  {
    "cityId": 184,
    "cityName": "九台区",
    "province": "吉林省",
    "longitude": 125.8324508,
    "latitude": 44.15416965
  },
  {
    "cityId": 185,
    "cityName": "榆树市",
    "province": "吉林省",
    "longitude": 126.5541261,
    "latitude": 44.82095228
  },
  {
    "cityId": 186,
    "cityName": "德惠市",
    "province": "吉林省",
    "longitude": 125.7048826,
    "latitude": 44.52857288
  },
  {
    "cityId": 187,
    "cityName": "农安县",
    "province": "吉林省",
    "longitude": 125.1753252,
    "latitude": 44.4209875
  },
  {
    "cityId": 189,
    "cityName": "吉林市",
    "province": "吉林省",
    "longitude": 126.5670014,
    "latitude": 43.85085241
  },
  {
    "cityId": 190,
    "cityName": "舒兰市",
    "province": "吉林省",
    "longitude": 126.9468729,
    "latitude": 44.40779243
  },
  {
    "cityId": 191,
    "cityName": "桦甸市",
    "province": "吉林省",
    "longitude": 126.7435138,
    "latitude": 42.96538006
  },
  {
    "cityId": 192,
    "cityName": "蛟河市",
    "province": "吉林省",
    "longitude": 127.3408533,
    "latitude": 43.71819692
  },
  {
    "cityId": 193,
    "cityName": "磐石市",
    "province": "吉林省",
    "longitude": 126.0583722,
    "latitude": 42.93271322
  },
  {
    "cityId": 194,
    "cityName": "永吉县",
    "province": "吉林省",
    "longitude": 126.4985797,
    "latitude": 43.65836037
  },
  {
    "cityId": 195,
    "cityName": "烟筒山",
    "province": "吉林省",
    "longitude": 126.031,
    "latitude": 43.2859
  },
  {
    "cityId": 197,
    "cityName": "四平市",
    "province": "吉林省",
    "longitude": 124.3649469,
    "latitude": 43.16149282
  },
  {
    "cityId": 198,
    "cityName": "公主岭市",
    "province": "吉林省",
    "longitude": 124.8108084,
    "latitude": 43.50589735
  },
  {
    "cityId": 199,
    "cityName": "双辽市",
    "province": "吉林省",
    "longitude": 123.49197,
    "latitude": 43.511112
  },
  {
    "cityId": 200,
    "cityName": "梨树县",
    "province": "吉林省",
    "longitude": 124.321909,
    "latitude": 43.30130511
  },
  {
    "cityId": 201,
    "cityName": "伊通满族自治县",
    "province": "吉林省",
    "longitude": 125.2944484,
    "latitude": 43.33710606
  },
  {
    "cityId": 204,
    "cityName": "辽源市",
    "province": "吉林省",
    "longitude": 125.1338888,
    "latitude": 42.90292028
  },
  {
    "cityId": 205,
    "cityName": "东辽县",
    "province": "吉林省",
    "longitude": 124.979,
    "latitude": 42.909512
  },
  {
    "cityId": 206,
    "cityName": "东丰县",
    "province": "吉林省",
    "longitude": 125.52465,
    "latitude": 42.670563
  },
  {
    "cityId": 208,
    "cityName": "通化市",
    "province": "吉林省",
    "longitude": 125.9294041,
    "latitude": 41.72085583
  },
  {
    "cityId": 209,
    "cityName": "梅河口市",
    "province": "吉林省",
    "longitude": 125.68069,
    "latitude": 42.534595
  },
  {
    "cityId": 210,
    "cityName": "集安市",
    "province": "吉林省",
    "longitude": 126.18375,
    "latitude": 41.12241
  },
  {
    "cityId": 211,
    "cityName": "辉南县",
    "province": "吉林省",
    "longitude": 126.03673,
    "latitude": 42.680046
  },
  {
    "cityId": 212,
    "cityName": "通化县",
    "province": "吉林省",
    "longitude": 125.75433,
    "latitude": 41.679268
  },
  {
    "cityId": 213,
    "cityName": "柳河县",
    "province": "吉林省",
    "longitude": 125.72972,
    "latitude": 42.270134
  },
  {
    "cityId": 215,
    "cityName": "白山市",
    "province": "吉林省",
    "longitude": 126.4151101,
    "latitude": 41.92996026
  },
  {
    "cityId": 216,
    "cityName": "靖宇县",
    "province": "吉林省",
    "longitude": 126.8023391,
    "latitude": 42.39064902
  },
  {
    "cityId": 217,
    "cityName": "抚松县",
    "province": "吉林省",
    "longitude": 127.26592,
    "latitude": 42.32552
  },
  {
    "cityId": 218,
    "cityName": "长白朝鲜族自治县",
    "province": "吉林省",
    "longitude": 128.1925,
    "latitude": 41.420891
  },
  {
    "cityId": 219,
    "cityName": "东岗镇",
    "province": "吉林省",
    "longitude": 127.95,
    "latitude": 42.16666666
  },
  {
    "cityId": 220,
    "cityName": "临江市",
    "province": "吉林省",
    "longitude": 126.9286093,
    "latitude": 41.82223357
  },
  {
    "cityId": 221,
    "cityName": "江源区",
    "province": "吉林省",
    "longitude": 126.5911444,
    "latitude": 42.05677222
  },
  {
    "cityId": 223,
    "cityName": "白城市",
    "province": "吉林省",
    "longitude": 122.8399156,
    "latitude": 45.61492847
  },
  {
    "cityId": 224,
    "cityName": "洮南市",
    "province": "吉林省",
    "longitude": 122.77431,
    "latitude": 45.337811
  },
  {
    "cityId": 225,
    "cityName": "大安市",
    "province": "吉林省",
    "longitude": 124.28724,
    "latitude": 45.500519
  },
  {
    "cityId": 226,
    "cityName": "镇赉县",
    "province": "吉林省",
    "longitude": 123.20025,
    "latitude": 45.841965
  },
  {
    "cityId": 227,
    "cityName": "通榆县",
    "province": "吉林省",
    "longitude": 123.08252,
    "latitude": 44.800243
  },
  {
    "cityId": 229,
    "cityName": "松原市",
    "province": "吉林省",
    "longitude": 124.8028746,
    "latitude": 45.18003893
  },
  {
    "cityId": 231,
    "cityName": "扶余市",
    "province": "吉林省",
    "longitude": 126.024736,
    "latitude": 44.99182659
  },
  {
    "cityId": 232,
    "cityName": "长岭县",
    "province": "吉林省",
    "longitude": 123.9887992,
    "latitude": 44.27313993
  },
  {
    "cityId": 233,
    "cityName": "乾安县",
    "province": "吉林省",
    "longitude": 124.0199561,
    "latitude": 44.99310122
  },
  {
    "cityId": 234,
    "cityName": "前郭尔罗斯蒙古族自治县",
    "province": "吉林省",
    "longitude": 124.8336423,
    "latitude": 45.11134267
  },
  {
    "cityId": 236,
    "cityName": "延边朝鲜族自治州",
    "province": "吉林省",
    "longitude": 129.5028482,
    "latitude": 42.93364449
  },
  {
    "cityId": 237,
    "cityName": "延吉市",
    "province": "吉林省",
    "longitude": 129.5115995,
    "latitude": 42.90673053
  },
  {
    "cityId": 238,
    "cityName": "图们市",
    "province": "吉林省",
    "longitude": 129.840107,
    "latitude": 42.95921299
  },
  {
    "cityId": 239,
    "cityName": "敦化市",
    "province": "吉林省",
    "longitude": 128.2281951,
    "latitude": 43.36235323
  },
  {
    "cityId": 240,
    "cityName": "龙井市",
    "province": "吉林省",
    "longitude": 129.4246983,
    "latitude": 42.76901939
  },
  {
    "cityId": 241,
    "cityName": "珲春市",
    "province": "吉林省",
    "longitude": 130.3599026,
    "latitude": 42.86291338
  },
  {
    "cityId": 242,
    "cityName": "和龙市",
    "province": "吉林省",
    "longitude": 129.0084979,
    "latitude": 42.54220824
  },
  {
    "cityId": 243,
    "cityName": "安图县",
    "province": "吉林省",
    "longitude": 128.9161157,
    "latitude": 43.10312273
  },
  {
    "cityId": 244,
    "cityName": "汪清县",
    "province": "吉林省",
    "longitude": 129.7375998,
    "latitude": 43.31576462
  },
  {
    "cityId": 245,
    "cityName": "二道白河镇",
    "province": "吉林省",
    "longitude": 128.2,
    "latitude": 42.7
  },
  {
    "cityId": 246,
    "cityName": "安图县松江镇",
    "province": "吉林省",
    "longitude": 127.1992222,
    "latitude": 43.55284167
  },
  {
    "cityId": 247,
    "cityName": "罗子沟镇",
    "province": "吉林省",
    "longitude": 130.3512722,
    "latitude": 43.73074722
  },
  {
    "cityId": 250,
    "cityName": "哈尔滨市",
    "province": "黑龙江省",
    "longitude": 126.6225811,
    "latitude": 45.75521417
  },
  {
    "cityId": 252,
    "cityName": "呼兰区",
    "province": "黑龙江省",
    "longitude": 126.601655,
    "latitude": 45.98623512
  },
  {
    "cityId": 253,
    "cityName": "双城区",
    "province": "黑龙江省",
    "longitude": 126.32,
    "latitude": 45.53
  },
  {
    "cityId": 254,
    "cityName": "尚志市",
    "province": "黑龙江省",
    "longitude": 127.95,
    "latitude": 45.22
  },
  {
    "cityId": 255,
    "cityName": "五常市",
    "province": "黑龙江省",
    "longitude": 127.17,
    "latitude": 44.93
  },
  {
    "cityId": 256,
    "cityName": "阿城区",
    "province": "黑龙江省",
    "longitude": 126.9654142,
    "latitude": 45.53882613
  },
  {
    "cityId": 259,
    "cityName": "依兰县",
    "province": "黑龙江省",
    "longitude": 129.5576538,
    "latitude": 46.30695793
  },
  {
    "cityId": 260,
    "cityName": "方正县",
    "province": "黑龙江省",
    "longitude": 128.8338838,
    "latitude": 45.82909069
  },
  {
    "cityId": 261,
    "cityName": "宾县",
    "province": "黑龙江省",
    "longitude": 127.48,
    "latitude": 45.75
  },
  {
    "cityId": 262,
    "cityName": "巴彦县",
    "province": "黑龙江省",
    "longitude": 127.38,
    "latitude": 46.08
  },
  {
    "cityId": 263,
    "cityName": "木兰县",
    "province": "黑龙江省",
    "longitude": 128.0449025,
    "latitude": 45.94198394
  },
  {
    "cityId": 264,
    "cityName": "通河县",
    "province": "黑龙江省",
    "longitude": 128.7465921,
    "latitude": 45.96560485
  },
  {
    "cityId": 265,
    "cityName": "延寿县",
    "province": "黑龙江省",
    "longitude": 128.3415992,
    "latitude": 45.44410995
  },
  {
    "cityId": 267,
    "cityName": "齐齐哈尔市",
    "province": "黑龙江省",
    "longitude": 123.9650286,
    "latitude": 47.34411388
  },
  {
    "cityId": 271,
    "cityName": "讷河市",
    "province": "黑龙江省",
    "longitude": 124.8750646,
    "latitude": 48.48527525
  },
  {
    "cityId": 272,
    "cityName": "龙江县",
    "province": "黑龙江省",
    "longitude": 123.1785049,
    "latitude": 47.33755581
  },
  {
    "cityId": 273,
    "cityName": "依安县",
    "province": "黑龙江省",
    "longitude": 125.3039555,
    "latitude": 47.87612511
  },
  {
    "cityId": 274,
    "cityName": "泰来县",
    "province": "黑龙江省",
    "longitude": 123.4101046,
    "latitude": 46.38806001
  },
  {
    "cityId": 275,
    "cityName": "甘南县",
    "province": "黑龙江省",
    "longitude": 123.5071157,
    "latitude": 47.91464509
  },
  {
    "cityId": 276,
    "cityName": "富裕县",
    "province": "黑龙江省",
    "longitude": 124.4487286,
    "latitude": 47.78974146
  },
  {
    "cityId": 277,
    "cityName": "克山县",
    "province": "黑龙江省",
    "longitude": 125.8708715,
    "latitude": 48.0224788
  },
  {
    "cityId": 278,
    "cityName": "克东县",
    "province": "黑龙江省",
    "longitude": 126.2515585,
    "latitude": 48.02852871
  },
  {
    "cityId": 279,
    "cityName": "拜泉县",
    "province": "黑龙江省",
    "longitude": 126.088871,
    "latitude": 47.59374199
  },
  {
    "cityId": 281,
    "cityName": "鸡西市",
    "province": "黑龙江省",
    "longitude": 130.9705864,
    "latitude": 45.28200902
  },
  {
    "cityId": 287,
    "cityName": "虎林市",
    "province": "黑龙江省",
    "longitude": 132.93721,
    "latitude": 45.76934505
  },
  {
    "cityId": 288,
    "cityName": "密山市",
    "province": "黑龙江省",
    "longitude": 131.8620168,
    "latitude": 45.53742234
  },
  {
    "cityId": 289,
    "cityName": "鸡东县",
    "province": "黑龙江省",
    "longitude": 131.1733219,
    "latitude": 45.24746531
  },
  {
    "cityId": 291,
    "cityName": "鹤岗市",
    "province": "黑龙江省",
    "longitude": 130.2786936,
    "latitude": 47.32627801
  },
  {
    "cityId": 292,
    "cityName": "萝北县",
    "province": "黑龙江省",
    "longitude": 130.8256572,
    "latitude": 47.56997615
  },
  {
    "cityId": 293,
    "cityName": "绥滨县",
    "province": "黑龙江省",
    "longitude": 131.8477949,
    "latitude": 47.27995119
  },
  {
    "cityId": 295,
    "cityName": "双鸭山市",
    "province": "黑龙江省",
    "longitude": 131.1469662,
    "latitude": 46.62880192
  },
  {
    "cityId": 299,
    "cityName": "集贤县",
    "province": "黑龙江省",
    "longitude": 131.1254124,
    "latitude": 46.7190336
  },
  {
    "cityId": 300,
    "cityName": "宝清县",
    "province": "黑龙江省",
    "longitude": 132.1969114,
    "latitude": 46.32551836
  },
  {
    "cityId": 301,
    "cityName": "饶河县",
    "province": "黑龙江省",
    "longitude": 134.0162955,
    "latitude": 46.79560314
  },
  {
    "cityId": 303,
    "cityName": "友谊县",
    "province": "黑龙江省",
    "longitude": 131.8,
    "latitude": 46.78
  },
  {
    "cityId": 305,
    "cityName": "大庆市",
    "province": "黑龙江省",
    "longitude": 125.0157541,
    "latitude": 46.59328805
  },
  {
    "cityId": 310,
    "cityName": "肇源县",
    "province": "黑龙江省",
    "longitude": 125.0770174,
    "latitude": 45.51134383
  },
  {
    "cityId": 311,
    "cityName": "肇州县",
    "province": "黑龙江省",
    "longitude": 125.2682971,
    "latitude": 45.70420282
  },
  {
    "cityId": 312,
    "cityName": "林甸县",
    "province": "黑龙江省",
    "longitude": 124.8624794,
    "latitude": 47.17964311
  },
  {
    "cityId": 314,
    "cityName": "杜尔伯特蒙古族自治县",
    "province": "黑龙江省",
    "longitude": 124.4425472,
    "latitude": 46.86275
  },
  {
    "cityId": 316,
    "cityName": "伊春市",
    "province": "黑龙江省",
    "longitude": 128.9060947,
    "latitude": 47.7191001
  },
  {
    "cityId": 326,
    "cityName": "铁力市",
    "province": "黑龙江省",
    "longitude": 128.0593257,
    "latitude": 46.98638497
  },
  {
    "cityId": 327,
    "cityName": "嘉荫县",
    "province": "黑龙江省",
    "longitude": 130.0561231,
    "latitude": 48.9307893
  },
  {
    "cityId": 328,
    "cityName": "乌伊岭区",
    "province": "黑龙江省",
    "longitude": 129.7166667,
    "latitude": 48.95
  },
  {
    "cityId": 329,
    "cityName": "五营区",
    "province": "黑龙江省",
    "longitude": 129.245344,
    "latitude": 48.10950636
  },
  {
    "cityId": 331,
    "cityName": "佳木斯市",
    "province": "黑龙江省",
    "longitude": 130.3642752,
    "latitude": 46.79619327
  },
  {
    "cityId": 332,
    "cityName": "同江市",
    "province": "黑龙江省",
    "longitude": 132.4897335,
    "latitude": 47.65741217
  },
  {
    "cityId": 333,
    "cityName": "富锦市",
    "province": "黑龙江省",
    "longitude": 132.0236857,
    "latitude": 47.25722251
  },
  {
    "cityId": 334,
    "cityName": "桦南县",
    "province": "黑龙江省",
    "longitude": 130.5289978,
    "latitude": 46.21679116
  },
  {
    "cityId": 335,
    "cityName": "桦川县",
    "province": "黑龙江省",
    "longitude": 130.7053705,
    "latitude": 47.01825269
  },
  {
    "cityId": 336,
    "cityName": "汤原县",
    "province": "黑龙江省",
    "longitude": 129.8918106,
    "latitude": 46.72212688
  },
  {
    "cityId": 337,
    "cityName": "抚远市",
    "province": "黑龙江省",
    "longitude": 134.298014,
    "latitude": 48.36576316
  },
  {
    "cityId": 339,
    "cityName": "七台河市",
    "province": "黑龙江省",
    "longitude": 130.8309762,
    "latitude": 45.79509766
  },
  {
    "cityId": 340,
    "cityName": "勃利县",
    "province": "黑龙江省",
    "longitude": 130.5697032,
    "latitude": 45.74314817
  },
  {
    "cityId": 342,
    "cityName": "牡丹江市",
    "province": "黑龙江省",
    "longitude": 129.6111449,
    "latitude": 44.57860692
  },
  {
    "cityId": 343,
    "cityName": "穆棱市",
    "province": "黑龙江省",
    "longitude": 130.5231656,
    "latitude": 44.9083916
  },
  {
    "cityId": 344,
    "cityName": "绥芬河市",
    "province": "黑龙江省",
    "longitude": 131.1403461,
    "latitude": 44.39568787
  },
  {
    "cityId": 345,
    "cityName": "海林市",
    "province": "黑龙江省",
    "longitude": 129.3833104,
    "latitude": 44.56649009
  },
  {
    "cityId": 346,
    "cityName": "宁安市",
    "province": "黑龙江省",
    "longitude": 129.4669892,
    "latitude": 44.33532175
  },
  {
    "cityId": 347,
    "cityName": "东宁市",
    "province": "黑龙江省",
    "longitude": 131.1165437,
    "latitude": 44.04989532
  },
  {
    "cityId": 348,
    "cityName": "林口县",
    "province": "黑龙江省",
    "longitude": 130.2605213,
    "latitude": 45.2785241
  },
  {
    "cityId": 351,
    "cityName": "黑河市",
    "province": "黑龙江省",
    "longitude": 127.4783875,
    "latitude": 50.2422134
  },
  {
    "cityId": 353,
    "cityName": "北安市",
    "province": "黑龙江省",
    "longitude": 126.5169331,
    "latitude": 48.23669718
  },
  {
    "cityId": 354,
    "cityName": "五大连池市",
    "province": "黑龙江省",
    "longitude": 126.1907577,
    "latitude": 48.50657735
  },
  {
    "cityId": 355,
    "cityName": "嫩江县",
    "province": "黑龙江省",
    "longitude": 125.2345813,
    "latitude": 49.17168472
  },
  {
    "cityId": 356,
    "cityName": "逊克县",
    "province": "黑龙江省",
    "longitude": 128.4631952,
    "latitude": 49.57250589
  },
  {
    "cityId": 357,
    "cityName": "孙吴县",
    "province": "黑龙江省",
    "longitude": 127.3132463,
    "latitude": 49.41996338
  },
  {
    "cityId": 359,
    "cityName": "绥化市",
    "province": "黑龙江省",
    "longitude": 126.9915879,
    "latitude": 46.63142683
  },
  {
    "cityId": 360,
    "cityName": "安达市",
    "province": "黑龙江省",
    "longitude": 125.3156868,
    "latitude": 46.40714959
  },
  {
    "cityId": 361,
    "cityName": "肇东市",
    "province": "黑龙江省",
    "longitude": 125.9827375,
    "latitude": 46.06527583
  },
  {
    "cityId": 362,
    "cityName": "海伦市",
    "province": "黑龙江省",
    "longitude": 126.9520409,
    "latitude": 47.45411509
  },
  {
    "cityId": 363,
    "cityName": "望奎县",
    "province": "黑龙江省",
    "longitude": 126.4785481,
    "latitude": 46.83460483
  },
  {
    "cityId": 364,
    "cityName": "兰西县",
    "province": "黑龙江省",
    "longitude": 126.2867399,
    "latitude": 46.25943064
  },
  {
    "cityId": 365,
    "cityName": "青冈县",
    "province": "黑龙江省",
    "longitude": 126.1048653,
    "latitude": 46.68360863
  },
  {
    "cityId": 366,
    "cityName": "庆安县",
    "province": "黑龙江省",
    "longitude": 127.5113814,
    "latitude": 46.87295662
  },
  {
    "cityId": 367,
    "cityName": "明水县",
    "province": "黑龙江省",
    "longitude": 125.9043757,
    "latitude": 47.17509272
  },
  {
    "cityId": 368,
    "cityName": "绥棱县",
    "province": "黑龙江省",
    "longitude": 127.0963719,
    "latitude": 47.24437342
  },
  {
    "cityId": 370,
    "cityName": "大兴安岭地区",
    "province": "黑龙江省",
    "longitude": 124.1258971,
    "latitude": 50.4268536
  },
  {
    "cityId": 371,
    "cityName": "加格达奇区",
    "province": "黑龙江省",
    "longitude": 124.1148934,
    "latitude": 50.42118851
  },
  {
    "cityId": 372,
    "cityName": "呼玛县",
    "province": "黑龙江省",
    "longitude": 126.6489859,
    "latitude": 51.72247947
  },
  {
    "cityId": 373,
    "cityName": "塔河县",
    "province": "黑龙江省",
    "longitude": 124.7144326,
    "latitude": 52.33450482
  },
  {
    "cityId": 374,
    "cityName": "漠河市",
    "province": "黑龙江省",
    "longitude": 122.538592,
    "latitude": 52.97801545
  },
  {
    "cityId": 375,
    "cityName": "呼中区",
    "province": "黑龙江省",
    "longitude": 123.606256,
    "latitude": 52.03901864
  },
  {
    "cityId": 376,
    "cityName": "新林区",
    "province": "黑龙江省",
    "longitude": 124.4268962,
    "latitude": 51.6749049
  },
  {
    "cityId": 379,
    "cityName": "郑州市",
    "province": "河南省",
    "longitude": 113.6548802,
    "latitude": 34.76467175
  },
  {
    "cityId": 380,
    "cityName": "上街区",
    "province": "河南省",
    "longitude": 113.2889788,
    "latitude": 34.81391244
  },
  {
    "cityId": 381,
    "cityName": "新郑市",
    "province": "河南省",
    "longitude": 113.7232161,
    "latitude": 34.39555252
  },
  {
    "cityId": 382,
    "cityName": "荥阳市",
    "province": "河南省",
    "longitude": 113.3791736,
    "latitude": 34.78841819
  },
  {
    "cityId": 383,
    "cityName": "新密市",
    "province": "河南省",
    "longitude": 113.3798169,
    "latitude": 34.53703071
  },
  {
    "cityId": 384,
    "cityName": "巩义市",
    "province": "河南省",
    "longitude": 112.9782425,
    "latitude": 34.75638688
  },
  {
    "cityId": 385,
    "cityName": "登封市",
    "province": "河南省",
    "longitude": 113.0322066,
    "latitude": 34.45828929
  },
  {
    "cityId": 386,
    "cityName": "中牟县",
    "province": "河南省",
    "longitude": 114.0117605,
    "latitude": 34.7266996
  },
  {
    "cityId": 388,
    "cityName": "开封市",
    "province": "河南省",
    "longitude": 114.3394045,
    "latitude": 34.78740779
  },
  {
    "cityId": 389,
    "cityName": "杞县",
    "province": "河南省",
    "longitude": 114.7787397,
    "latitude": 34.55241895
  },
  {
    "cityId": 390,
    "cityName": "通许县",
    "province": "河南省",
    "longitude": 114.4606809,
    "latitude": 34.47468216
  },
  {
    "cityId": 391,
    "cityName": "尉氏县",
    "province": "河南省",
    "longitude": 114.1886917,
    "latitude": 34.4110681
  },
  {
    "cityId": 392,
    "cityName": "兰考县",
    "province": "河南省",
    "longitude": 114.815476,
    "latitude": 34.82393377
  },
  {
    "cityId": 394,
    "cityName": "洛阳市",
    "province": "河南省",
    "longitude": 112.361271,
    "latitude": 34.67144594
  },
  {
    "cityId": 396,
    "cityName": "吉利区",
    "province": "河南省",
    "longitude": 112.603962,
    "latitude": 34.89754191
  },
  {
    "cityId": 397,
    "cityName": "偃师市",
    "province": "河南省",
    "longitude": 112.7706932,
    "latitude": 34.72645787
  },
  {
    "cityId": 398,
    "cityName": "孟津县",
    "province": "河南省",
    "longitude": 112.4396519,
    "latitude": 34.82754728
  },
  {
    "cityId": 399,
    "cityName": "新安县",
    "province": "河南省",
    "longitude": 112.136601,
    "latitude": 34.72800488
  },
  {
    "cityId": 400,
    "cityName": "栾川县",
    "province": "河南省",
    "longitude": 111.613481,
    "latitude": 33.7838584
  },
  {
    "cityId": 401,
    "cityName": "嵩县",
    "province": "河南省",
    "longitude": 112.0810951,
    "latitude": 34.13261872
  },
  {
    "cityId": 402,
    "cityName": "汝阳县",
    "province": "河南省",
    "longitude": 112.466061,
    "latitude": 34.15403473
  },
  {
    "cityId": 403,
    "cityName": "宜阳县",
    "province": "河南省",
    "longitude": 112.1694657,
    "latitude": 34.52068964
  },
  {
    "cityId": 404,
    "cityName": "洛宁县",
    "province": "河南省",
    "longitude": 111.6449701,
    "latitude": 34.39066326
  },
  {
    "cityId": 405,
    "cityName": "伊川县",
    "province": "河南省",
    "longitude": 112.4220468,
    "latitude": 34.42288354
  },
  {
    "cityId": 407,
    "cityName": "平顶山市",
    "province": "河南省",
    "longitude": 113.2931995,
    "latitude": 33.74024087
  },
  {
    "cityId": 408,
    "cityName": "舞钢市",
    "province": "河南省",
    "longitude": 113.4833328,
    "latitude": 33.28647839
  },
  {
    "cityId": 409,
    "cityName": "汝州市",
    "province": "河南省",
    "longitude": 112.8300119,
    "latitude": 34.15978021
  },
  {
    "cityId": 410,
    "cityName": "宝丰县",
    "province": "河南省",
    "longitude": 113.0593327,
    "latitude": 33.86932129
  },
  {
    "cityId": 411,
    "cityName": "叶县",
    "province": "河南省",
    "longitude": 113.3417574,
    "latitude": 33.6223425
  },
  {
    "cityId": 412,
    "cityName": "鲁山县",
    "province": "河南省",
    "longitude": 112.8912835,
    "latitude": 33.73760806
  },
  {
    "cityId": 413,
    "cityName": "郏县",
    "province": "河南省",
    "longitude": 113.2041944,
    "latitude": 33.96789306
  },
  {
    "cityId": 414,
    "cityName": "石龙区",
    "province": "河南省",
    "longitude": 112.8987972,
    "latitude": 33.89878056
  },
  {
    "cityId": 416,
    "cityName": "焦作市",
    "province": "河南省",
    "longitude": 113.1527291,
    "latitude": 35.24168325
  },
  {
    "cityId": 419,
    "cityName": "沁阳市",
    "province": "河南省",
    "longitude": 112.9302758,
    "latitude": 35.09051053
  },
  {
    "cityId": 420,
    "cityName": "孟州市",
    "province": "河南省",
    "longitude": 112.780344,
    "latitude": 34.90719893
  },
  {
    "cityId": 421,
    "cityName": "修武县",
    "province": "河南省",
    "longitude": 113.4365436,
    "latitude": 35.23165851
  },
  {
    "cityId": 422,
    "cityName": "博爱县",
    "province": "河南省",
    "longitude": 113.0628286,
    "latitude": 35.16929023
  },
  {
    "cityId": 423,
    "cityName": "武陟县",
    "province": "河南省",
    "longitude": 113.3885869,
    "latitude": 35.09924724
  },
  {
    "cityId": 424,
    "cityName": "温县",
    "province": "河南省",
    "longitude": 113.074255,
    "latitude": 34.93604135
  },
  {
    "cityId": 426,
    "cityName": "鹤壁市",
    "province": "河南省",
    "longitude": 114.29745,
    "latitude": 35.747
  },
  {
    "cityId": 430,
    "cityName": "浚县",
    "province": "河南省",
    "longitude": 114.5301933,
    "latitude": 35.66336954
  },
  {
    "cityId": 431,
    "cityName": "淇县",
    "province": "河南省",
    "longitude": 114.1900391,
    "latitude": 35.60770684
  },
  {
    "cityId": 433,
    "cityName": "新乡市",
    "province": "河南省",
    "longitude": 113.8629952,
    "latitude": 35.30905018
  },
  {
    "cityId": 435,
    "cityName": "卫辉市",
    "province": "河南省",
    "longitude": 114.061403,
    "latitude": 35.41075307
  },
  {
    "cityId": 436,
    "cityName": "辉县市",
    "province": "河南省",
    "longitude": 113.7962935,
    "latitude": 35.45957138
  },
  {
    "cityId": 437,
    "cityName": "获嘉县",
    "province": "河南省",
    "longitude": 113.6456042,
    "latitude": 35.26333412
  },
  {
    "cityId": 438,
    "cityName": "原阳县",
    "province": "河南省",
    "longitude": 113.9533256,
    "latitude": 35.04931681
  },
  {
    "cityId": 439,
    "cityName": "延津县",
    "province": "河南省",
    "longitude": 114.1848206,
    "latitude": 35.13624859
  },
  {
    "cityId": 440,
    "cityName": "长垣市",
    "province": "河南省",
    "longitude": 114.676279,
    "latitude": 35.19363612
  },
  {
    "cityId": 441,
    "cityName": "封丘县",
    "province": "河南省",
    "longitude": 114.416524,
    "latitude": 35.03990882
  },
  {
    "cityId": 443,
    "cityName": "安阳市",
    "province": "河南省",
    "longitude": 114.3415981,
    "latitude": 36.09240888
  },
  {
    "cityId": 444,
    "cityName": "林州市",
    "province": "河南省",
    "longitude": 113.8154669,
    "latitude": 36.05891304
  },
  {
    "cityId": 445,
    "cityName": "汤阴县",
    "province": "河南省",
    "longitude": 114.3515272,
    "latitude": 35.9143565
  },
  {
    "cityId": 446,
    "cityName": "内黄县",
    "province": "河南省",
    "longitude": 114.8986708,
    "latitude": 35.94871826
  },
  {
    "cityId": 447,
    "cityName": "滑县",
    "province": "河南省",
    "longitude": 114.4976919,
    "latitude": 35.57153381
  },
  {
    "cityId": 449,
    "cityName": "濮阳市",
    "province": "河南省",
    "longitude": 115.0419618,
    "latitude": 35.77506746
  },
  {
    "cityId": 450,
    "cityName": "清丰县",
    "province": "河南省",
    "longitude": 115.1045575,
    "latitude": 35.90205169
  },
  {
    "cityId": 451,
    "cityName": "南乐县",
    "province": "河南省",
    "longitude": 115.2013785,
    "latitude": 36.07289735
  },
  {
    "cityId": 452,
    "cityName": "范县",
    "province": "河南省",
    "longitude": 115.504161,
    "latitude": 35.85971818
  },
  {
    "cityId": 453,
    "cityName": "台前县",
    "province": "河南省",
    "longitude": 115.8483801,
    "latitude": 35.99147823
  },
  {
    "cityId": 456,
    "cityName": "许昌市",
    "province": "河南省",
    "longitude": 113.805365,
    "latitude": 34.02260667
  },
  {
    "cityId": 458,
    "cityName": "禹州市",
    "province": "河南省",
    "longitude": 113.4609091,
    "latitude": 34.16329741
  },
  {
    "cityId": 459,
    "cityName": "长葛市",
    "province": "河南省",
    "longitude": 113.7628818,
    "latitude": 34.21376564
  },
  {
    "cityId": 461,
    "cityName": "鄢陵县",
    "province": "河南省",
    "longitude": 114.191202,
    "latitude": 34.10327986
  },
  {
    "cityId": 462,
    "cityName": "襄城县",
    "province": "河南省",
    "longitude": 113.4748067,
    "latitude": 33.8508586
  },
  {
    "cityId": 464,
    "cityName": "漯河市",
    "province": "河南省",
    "longitude": 114.0258373,
    "latitude": 33.56324417
  },
  {
    "cityId": 466,
    "cityName": "舞阳县",
    "province": "河南省",
    "longitude": 113.5853972,
    "latitude": 33.42839046
  },
  {
    "cityId": 467,
    "cityName": "临颍县",
    "province": "河南省",
    "longitude": 113.9517265,
    "latitude": 33.81206165
  },
  {
    "cityId": 469,
    "cityName": "三门峡市",
    "province": "河南省",
    "longitude": 111.194817,
    "latitude": 34.77862311
  },
  {
    "cityId": 470,
    "cityName": "义马市",
    "province": "河南省",
    "longitude": 111.8679809,
    "latitude": 34.74304943
  },
  {
    "cityId": 471,
    "cityName": "灵宝市",
    "province": "河南省",
    "longitude": 110.8715213,
    "latitude": 34.51923568
  },
  {
    "cityId": 472,
    "cityName": "陕州区",
    "province": "河南省",
    "longitude": 111.0758976,
    "latitude": 34.69483951
  },
  {
    "cityId": 473,
    "cityName": "渑池县",
    "province": "河南省",
    "longitude": 111.7499129,
    "latitude": 34.76064885
  },
  {
    "cityId": 474,
    "cityName": "卢氏县",
    "province": "河南省",
    "longitude": 111.0329308,
    "latitude": 34.05667647
  },
  {
    "cityId": 476,
    "cityName": "南阳市",
    "province": "河南省",
    "longitude": 112.5267803,
    "latitude": 32.99583664
  },
  {
    "cityId": 477,
    "cityName": "邓州市",
    "province": "河南省",
    "longitude": 112.0770913,
    "latitude": 32.67772103
  },
  {
    "cityId": 478,
    "cityName": "南召县",
    "province": "河南省",
    "longitude": 112.4201247,
    "latitude": 33.48838386
  },
  {
    "cityId": 479,
    "cityName": "方城县",
    "province": "河南省",
    "longitude": 112.9947862,
    "latitude": 33.25243549
  },
  {
    "cityId": 480,
    "cityName": "镇平县",
    "province": "河南省",
    "longitude": 112.230047,
    "latitude": 33.03204524
  },
  {
    "cityId": 481,
    "cityName": "社旗县",
    "province": "河南省",
    "longitude": 112.933241,
    "latitude": 33.04669932
  },
  {
    "cityId": 482,
    "cityName": "唐河县",
    "province": "河南省",
    "longitude": 112.8266406,
    "latitude": 32.69005086
  },
  {
    "cityId": 483,
    "cityName": "新野县",
    "province": "河南省",
    "longitude": 112.3485581,
    "latitude": 32.51743993
  },
  {
    "cityId": 484,
    "cityName": "内乡县",
    "province": "河南省",
    "longitude": 111.8448934,
    "latitude": 33.0458347
  },
  {
    "cityId": 485,
    "cityName": "西峡县",
    "province": "河南省",
    "longitude": 111.4666611,
    "latitude": 33.29600597
  },
  {
    "cityId": 486,
    "cityName": "淅川县",
    "province": "河南省",
    "longitude": 111.4744714,
    "latitude": 33.13670835
  },
  {
    "cityId": 487,
    "cityName": "桐柏县",
    "province": "河南省",
    "longitude": 113.3936879,
    "latitude": 32.36402206
  },
  {
    "cityId": 489,
    "cityName": "商丘市",
    "province": "河南省",
    "longitude": 115.6355085,
    "latitude": 34.43435225
  },
  {
    "cityId": 492,
    "cityName": "永城市",
    "province": "河南省",
    "longitude": 116.3636818,
    "latitude": 33.9297295
  },
  {
    "cityId": 493,
    "cityName": "民权县",
    "province": "河南省",
    "longitude": 115.1344928,
    "latitude": 34.64151733
  },
  {
    "cityId": 494,
    "cityName": "睢县",
    "province": "河南省",
    "longitude": 115.05185,
    "latitude": 34.42334759
  },
  {
    "cityId": 495,
    "cityName": "宁陵县",
    "province": "河南省",
    "longitude": 115.3094439,
    "latitude": 34.44068788
  },
  {
    "cityId": 496,
    "cityName": "柘城县",
    "province": "河南省",
    "longitude": 115.289907,
    "latitude": 34.07009586
  },
  {
    "cityId": 497,
    "cityName": "虞城县",
    "province": "河南省",
    "longitude": 115.8519242,
    "latitude": 34.38927017
  },
  {
    "cityId": 498,
    "cityName": "夏邑县",
    "province": "河南省",
    "longitude": 116.1257985,
    "latitude": 34.22846171
  },
  {
    "cityId": 500,
    "cityName": "信阳市",
    "province": "河南省",
    "longitude": 114.0602039,
    "latitude": 32.12501022
  },
  {
    "cityId": 502,
    "cityName": "罗山县",
    "province": "河南省",
    "longitude": 114.5235861,
    "latitude": 32.18844948
  },
  {
    "cityId": 503,
    "cityName": "光山县",
    "province": "河南省",
    "longitude": 114.8948434,
    "latitude": 32.01185185
  },
  {
    "cityId": 504,
    "cityName": "新县",
    "province": "河南省",
    "longitude": 114.8581261,
    "latitude": 31.61862163
  },
  {
    "cityId": 505,
    "cityName": "商城县",
    "province": "河南省",
    "longitude": 115.3966848,
    "latitude": 31.79180273
  },
  {
    "cityId": 506,
    "cityName": "固始县",
    "province": "河南省",
    "longitude": 115.6713501,
    "latitude": 32.17444584
  },
  {
    "cityId": 507,
    "cityName": "潢川县",
    "province": "河南省",
    "longitude": 115.041973,
    "latitude": 32.12647926
  },
  {
    "cityId": 508,
    "cityName": "淮滨县",
    "province": "河南省",
    "longitude": 115.3969257,
    "latitude": 32.43406524
  },
  {
    "cityId": 509,
    "cityName": "息县",
    "province": "河南省",
    "longitude": 114.7220899,
    "latitude": 32.34342579
  },
  {
    "cityId": 511,
    "cityName": "周口市",
    "province": "河南省",
    "longitude": 114.6324398,
    "latitude": 33.61697834
  },
  {
    "cityId": 513,
    "cityName": "项城市",
    "province": "河南省",
    "longitude": 114.8962516,
    "latitude": 33.44087137
  },
  {
    "cityId": 514,
    "cityName": "扶沟县",
    "province": "河南省",
    "longitude": 114.3919577,
    "latitude": 34.06073805
  },
  {
    "cityId": 515,
    "cityName": "西华县",
    "province": "河南省",
    "longitude": 114.5258272,
    "latitude": 33.79001253
  },
  {
    "cityId": 516,
    "cityName": "商水县",
    "province": "河南省",
    "longitude": 114.6033458,
    "latitude": 33.54428918
  },
  {
    "cityId": 517,
    "cityName": "沈丘县",
    "province": "河南省",
    "longitude": 115.0603008,
    "latitude": 33.38751599
  },
  {
    "cityId": 518,
    "cityName": "郸城县",
    "province": "河南省",
    "longitude": 115.1910314,
    "latitude": 33.64089385
  },
  {
    "cityId": 519,
    "cityName": "淮阳县",
    "province": "河南省",
    "longitude": 114.8767461,
    "latitude": 33.72624647
  },
  {
    "cityId": 520,
    "cityName": "太康县",
    "province": "河南省",
    "longitude": 114.8600305,
    "latitude": 34.06025748
  },
  {
    "cityId": 521,
    "cityName": "鹿邑县",
    "province": "河南省",
    "longitude": 115.4748998,
    "latitude": 33.85258768
  },
  {
    "cityId": 523,
    "cityName": "驻马店市",
    "province": "河南省",
    "longitude": 114.0169989,
    "latitude": 32.98047804
  },
  {
    "cityId": 524,
    "cityName": "西平县",
    "province": "河南省",
    "longitude": 114.0164598,
    "latitude": 33.38178436
  },
  {
    "cityId": 525,
    "cityName": "上蔡县",
    "province": "河南省",
    "longitude": 114.2547466,
    "latitude": 33.26217601
  },
  {
    "cityId": 526,
    "cityName": "平舆县",
    "province": "河南省",
    "longitude": 114.6213648,
    "latitude": 32.95207991
  },
  {
    "cityId": 527,
    "cityName": "正阳县",
    "province": "河南省",
    "longitude": 114.3764016,
    "latitude": 32.60365296
  },
  {
    "cityId": 528,
    "cityName": "确山县",
    "province": "河南省",
    "longitude": 114.0161567,
    "latitude": 32.80028144
  },
  {
    "cityId": 529,
    "cityName": "泌阳县",
    "province": "河南省",
    "longitude": 113.3160446,
    "latitude": 32.71400297
  },
  {
    "cityId": 530,
    "cityName": "汝南县",
    "province": "河南省",
    "longitude": 114.342369,
    "latitude": 32.99793113
  },
  {
    "cityId": 531,
    "cityName": "遂平县",
    "province": "河南省",
    "longitude": 113.9779982,
    "latitude": 33.14136955
  },
  {
    "cityId": 532,
    "cityName": "新蔡县",
    "province": "河南省",
    "longitude": 114.9732123,
    "latitude": 32.74264887
  },
  {
    "cityId": 534,
    "cityName": "济源市",
    "province": "河南省",
    "longitude": 112.5813545,
    "latitude": 35.08391765
  },
  {
    "cityId": 537,
    "cityName": "武汉市",
    "province": "湖北省",
    "longitude": 114.335269,
    "latitude": 30.637462
  },
  {
    "cityId": 540,
    "cityName": "黄陂区",
    "province": "湖北省",
    "longitude": 114.376022,
    "latitude": 30.882116
  },
  {
    "cityId": 541,
    "cityName": "新洲区",
    "province": "湖北省",
    "longitude": 114.801436,
    "latitude": 30.841243
  },
  {
    "cityId": 542,
    "cityName": "江夏区",
    "province": "湖北省",
    "longitude": 114.324583,
    "latitude": 30.372039
  },
  {
    "cityId": 543,
    "cityName": "蔡甸区",
    "province": "湖北省",
    "longitude": 114.029026,
    "latitude": 30.58214
  },
  {
    "cityId": 544,
    "cityName": "东西湖区",
    "province": "湖北省",
    "longitude": 114.136646,
    "latitude": 30.619846
  },
  {
    "cityId": 546,
    "cityName": "黄石市",
    "province": "湖北省",
    "longitude": 115.1007259,
    "latitude": 30.21174051
  },
  {
    "cityId": 547,
    "cityName": "大冶市",
    "province": "湖北省",
    "longitude": 114.979896,
    "latitude": 30.095547
  },
  {
    "cityId": 548,
    "cityName": "阳新县",
    "province": "湖北省",
    "longitude": 115.20963,
    "latitude": 29.83013
  },
  {
    "cityId": 549,
    "cityName": "西塞山区",
    "province": "湖北省",
    "longitude": 115.12,
    "latitude": 30.2
  },
  {
    "cityId": 550,
    "cityName": "铁山区",
    "province": "湖北省",
    "longitude": 114.9014111,
    "latitude": 30.20659167
  },
  {
    "cityId": 551,
    "cityName": "下陆区",
    "province": "湖北省",
    "longitude": 114.9611917,
    "latitude": 30.17384167
  },
  {
    "cityId": 553,
    "cityName": "襄阳市",
    "province": "湖北省",
    "longitude": 112.0962145,
    "latitude": 32.08173949
  },
  {
    "cityId": 554,
    "cityName": "襄州区",
    "province": "湖北省",
    "longitude": 112.1448024,
    "latitude": 32.01634507
  },
  {
    "cityId": 555,
    "cityName": "枣阳市",
    "province": "湖北省",
    "longitude": 112.7506894,
    "latitude": 32.12522616
  },
  {
    "cityId": 556,
    "cityName": "老河口市",
    "province": "湖北省",
    "longitude": 111.6767,
    "latitude": 32.3862
  },
  {
    "cityId": 557,
    "cityName": "宜城市",
    "province": "湖北省",
    "longitude": 112.2552537,
    "latitude": 31.70572857
  },
  {
    "cityId": 558,
    "cityName": "谷城县",
    "province": "湖北省",
    "longitude": 111.642442,
    "latitude": 32.26249246
  },
  {
    "cityId": 559,
    "cityName": "保康县",
    "province": "湖北省",
    "longitude": 111.2606843,
    "latitude": 31.87606851
  },
  {
    "cityId": 560,
    "cityName": "南漳县",
    "province": "湖北省",
    "longitude": 111.8340683,
    "latitude": 31.77185624
  },
  {
    "cityId": 562,
    "cityName": "鄂州市",
    "province": "湖北省",
    "longitude": 114.891608,
    "latitude": 30.399756
  },
  {
    "cityId": 563,
    "cityName": "梁子湖区",
    "province": "湖北省",
    "longitude": 114.67,
    "latitude": 30.08
  },
  {
    "cityId": 565,
    "cityName": "十堰市",
    "province": "湖北省",
    "longitude": 110.7828,
    "latitude": 32.65213
  },
  {
    "cityId": 566,
    "cityName": "郧阳区",
    "province": "湖北省",
    "longitude": 110.81399,
    "latitude": 32.83374
  },
  {
    "cityId": 567,
    "cityName": "郧西县",
    "province": "湖北省",
    "longitude": 110.4188,
    "latitude": 32.995605
  },
  {
    "cityId": 568,
    "cityName": "竹山县",
    "province": "湖北省",
    "longitude": 110.2286,
    "latitude": 32.226128
  },
  {
    "cityId": 569,
    "cityName": "竹溪县",
    "province": "湖北省",
    "longitude": 109.70952,
    "latitude": 32.333389
  },
  {
    "cityId": 570,
    "cityName": "房县",
    "province": "湖北省",
    "longitude": 110.72715,
    "latitude": 32.058971
  },
  {
    "cityId": 571,
    "cityName": "丹江口市",
    "province": "湖北省",
    "longitude": 111.513127,
    "latitude": 32.54145979
  },
  {
    "cityId": 572,
    "cityName": "张湾区",
    "province": "湖北省",
    "longitude": 110.7691361,
    "latitude": 32.65229444
  },
  {
    "cityId": 573,
    "cityName": "茅箭区",
    "province": "湖北省",
    "longitude": 110.8136222,
    "latitude": 32.59192778
  },
  {
    "cityId": 575,
    "cityName": "沙市区",
    "province": "湖北省",
    "longitude": 112.2424083,
    "latitude": 30.30553874
  },
  {
    "cityId": 576,
    "cityName": "石首市",
    "province": "湖北省",
    "longitude": 112.40646,
    "latitude": 29.72431
  },
  {
    "cityId": 577,
    "cityName": "洪湖市",
    "province": "湖北省",
    "longitude": 113.4666876,
    "latitude": 29.81667701
  },
  {
    "cityId": 578,
    "cityName": "松滋市",
    "province": "湖北省",
    "longitude": 111.77278,
    "latitude": 30.178774
  },
  {
    "cityId": 579,
    "cityName": "公安县",
    "province": "湖北省",
    "longitude": 112.22649,
    "latitude": 30.057533
  },
  {
    "cityId": 580,
    "cityName": "监利县",
    "province": "湖北省",
    "longitude": 112.90025,
    "latitude": 29.815758
  },
  {
    "cityId": 581,
    "cityName": "江陵县",
    "province": "湖北省",
    "longitude": 112.424664,
    "latitude": 30.04315185
  },
  {
    "cityId": 582,
    "cityName": "荆州市",
    "province": "湖北省",
    "longitude": 112.239741,
    "latitude": 30.34056152
  },
  {
    "cityId": 584,
    "cityName": "宜昌市",
    "province": "湖北省",
    "longitude": 111.280489,
    "latitude": 30.70820288
  },
  {
    "cityId": 585,
    "cityName": "宜都市",
    "province": "湖北省",
    "longitude": 111.4460995,
    "latitude": 30.38663258
  },
  {
    "cityId": 586,
    "cityName": "当阳市",
    "province": "湖北省",
    "longitude": 111.7838772,
    "latitude": 30.83070659
  },
  {
    "cityId": 587,
    "cityName": "枝江市",
    "province": "湖北省",
    "longitude": 111.7486384,
    "latitude": 30.42261156
  },
  {
    "cityId": 588,
    "cityName": "远安县",
    "province": "湖北省",
    "longitude": 111.6347714,
    "latitude": 31.06502497
  },
  {
    "cityId": 589,
    "cityName": "兴山县",
    "province": "湖北省",
    "longitude": 110.7570292,
    "latitude": 31.23135927
  },
  {
    "cityId": 590,
    "cityName": "秭归县",
    "province": "湖北省",
    "longitude": 110.6840844,
    "latitude": 31.00055256
  },
  {
    "cityId": 591,
    "cityName": "长阳土家族自治县",
    "province": "湖北省",
    "longitude": 111.1843025,
    "latitude": 30.47153236
  },
  {
    "cityId": 592,
    "cityName": "五峰土家族自治县",
    "province": "湖北省",
    "longitude": 110.6687131,
    "latitude": 30.20360879
  },
  {
    "cityId": 593,
    "cityName": "三峡大坝风景区",
    "province": "湖北省",
    "longitude": 111.0192826,
    "latitude": 30.85013703
  },
  {
    "cityId": 594,
    "cityName": "宜昌县",
    "province": "湖北省",
    "longitude": 111.326348,
    "latitude": 30.7700216
  },
  {
    "cityId": 595,
    "cityName": "夷陵区",
    "province": "湖北省",
    "longitude": 111.2783686,
    "latitude": 30.78979484
  },
  {
    "cityId": 597,
    "cityName": "荆门市",
    "province": "湖北省",
    "longitude": 112.1945969,
    "latitude": 31.03147428
  },
  {
    "cityId": 598,
    "cityName": "京山市",
    "province": "湖北省",
    "longitude": 113.1023322,
    "latitude": 31.02075028
  },
  {
    "cityId": 599,
    "cityName": "钟祥市",
    "province": "湖北省",
    "longitude": 112.5824164,
    "latitude": 31.16707351
  },
  {
    "cityId": 600,
    "cityName": "沙洋县",
    "province": "湖北省",
    "longitude": 112.5823759,
    "latitude": 30.69644865
  },
  {
    "cityId": 601,
    "cityName": "掇刀区",
    "province": "湖北省",
    "longitude": 112.2078333,
    "latitude": 30.97343056
  },
  {
    "cityId": 603,
    "cityName": "孝感市",
    "province": "湖北省",
    "longitude": 113.9000291,
    "latitude": 30.91934666
  },
  {
    "cityId": 604,
    "cityName": "汉川市",
    "province": "湖北省",
    "longitude": 113.839173,
    "latitude": 30.661003
  },
  {
    "cityId": 605,
    "cityName": "安陆市",
    "province": "湖北省",
    "longitude": 113.6860568,
    "latitude": 31.25246506
  },
  {
    "cityId": 606,
    "cityName": "应城市",
    "province": "湖北省",
    "longitude": 113.572943,
    "latitude": 30.928338
  },
  {
    "cityId": 607,
    "cityName": "大悟县",
    "province": "湖北省",
    "longitude": 114.1166539,
    "latitude": 31.55412561
  },
  {
    "cityId": 608,
    "cityName": "孝昌县",
    "province": "湖北省",
    "longitude": 113.998078,
    "latitude": 31.258064
  },
  {
    "cityId": 609,
    "cityName": "云梦县",
    "province": "湖北省",
    "longitude": 113.753432,
    "latitude": 31.020621
  },
  {
    "cityId": 611,
    "cityName": "黄冈市",
    "province": "湖北省",
    "longitude": 114.880191,
    "latitude": 30.434299
  },
  {
    "cityId": 612,
    "cityName": "麻城市",
    "province": "湖北省",
    "longitude": 115.0263404,
    "latitude": 31.17967976
  },
  {
    "cityId": 613,
    "cityName": "武穴市",
    "province": "湖北省",
    "longitude": 115.55716,
    "latitude": 29.855417
  },
  {
    "cityId": 614,
    "cityName": "团风县",
    "province": "湖北省",
    "longitude": 114.8691461,
    "latitude": 30.6407348
  },
  {
    "cityId": 615,
    "cityName": "红安县",
    "province": "湖北省",
    "longitude": 114.618447,
    "latitude": 31.287782
  },
  {
    "cityId": 616,
    "cityName": "罗田县",
    "province": "湖北省",
    "longitude": 115.3904,
    "latitude": 30.790346
  },
  {
    "cityId": 617,
    "cityName": "英山县",
    "province": "湖北省",
    "longitude": 115.66945,
    "latitude": 30.742138
  },
  {
    "cityId": 618,
    "cityName": "浠水县",
    "province": "湖北省",
    "longitude": 115.25204,
    "latitude": 30.458691
  },
  {
    "cityId": 619,
    "cityName": "蕲春县",
    "province": "湖北省",
    "longitude": 115.4247,
    "latitude": 30.238474
  },
  {
    "cityId": 620,
    "cityName": "黄梅县",
    "province": "湖北省",
    "longitude": 115.93494,
    "latitude": 30.079201
  },
  {
    "cityId": 622,
    "cityName": "咸宁市",
    "province": "湖北省",
    "longitude": 114.322387,
    "latitude": 29.841767
  },
  {
    "cityId": 623,
    "cityName": "赤壁市",
    "province": "湖北省",
    "longitude": 113.87461,
    "latitude": 29.708353
  },
  {
    "cityId": 624,
    "cityName": "嘉鱼县",
    "province": "湖北省",
    "longitude": 113.89558,
    "latitude": 29.975599
  },
  {
    "cityId": 625,
    "cityName": "通城县",
    "province": "湖北省",
    "longitude": 113.80643,
    "latitude": 29.261196
  },
  {
    "cityId": 626,
    "cityName": "崇阳县",
    "province": "湖北省",
    "longitude": 114.04384,
    "latitude": 29.548801
  },
  {
    "cityId": 627,
    "cityName": "通山县",
    "province": "湖北省",
    "longitude": 114.50382,
    "latitude": 29.597151
  },
  {
    "cityId": 629,
    "cityName": "随州市",
    "province": "湖北省",
    "longitude": 113.3632511,
    "latitude": 31.70977085
  },
  {
    "cityId": 630,
    "cityName": "广水市",
    "province": "湖北省",
    "longitude": 113.81899,
    "latitude": 31.61832
  },
  {
    "cityId": 632,
    "cityName": "恩施土家族苗族自治州",
    "province": "湖北省",
    "longitude": 109.4739972,
    "latitude": 30.27487548
  },
  {
    "cityId": 633,
    "cityName": "利川市",
    "province": "湖北省",
    "longitude": 108.93354,
    "latitude": 30.299772
  },
  {
    "cityId": 634,
    "cityName": "建始县",
    "province": "湖北省",
    "longitude": 109.72627,
    "latitude": 30.610687
  },
  {
    "cityId": 635,
    "cityName": "巴东县",
    "province": "湖北省",
    "longitude": 110.40453,
    "latitude": 31.030022
  },
  {
    "cityId": 636,
    "cityName": "宣恩县",
    "province": "湖北省",
    "longitude": 109.48023,
    "latitude": 29.989573
  },
  {
    "cityId": 637,
    "cityName": "咸丰县",
    "province": "湖北省",
    "longitude": 109.14426,
    "latitude": 29.676367
  },
  {
    "cityId": 638,
    "cityName": "来凤县",
    "province": "湖北省",
    "longitude": 109.40482,
    "latitude": 29.505201
  },
  {
    "cityId": 639,
    "cityName": "鹤峰县",
    "province": "湖北省",
    "longitude": 110.02555,
    "latitude": 29.892548
  },
  {
    "cityId": 641,
    "cityName": "仙桃市",
    "province": "湖北省",
    "longitude": 113.454543,
    "latitude": 30.362638
  },
  {
    "cityId": 643,
    "cityName": "潜江市",
    "province": "湖北省",
    "longitude": 112.89296,
    "latitude": 30.420952
  },
  {
    "cityId": 645,
    "cityName": "天门市",
    "province": "湖北省",
    "longitude": 113.16412,
    "latitude": 30.65625
  },
  {
    "cityId": 647,
    "cityName": "神农架林区",
    "province": "湖北省",
    "longitude": 110.67695,
    "latitude": 31.754316
  },
  {
    "cityId": 650,
    "cityName": "长沙市",
    "province": "湖南省",
    "longitude": 112.9684653,
    "latitude": 28.19765946
  },
  {
    "cityId": 651,
    "cityName": "浏阳市",
    "province": "湖南省",
    "longitude": 113.253937,
    "latitude": 28.469899
  },
  {
    "cityId": 653,
    "cityName": "望城区",
    "province": "湖南省",
    "longitude": 112.80692,
    "latitude": 28.376579
  },
  {
    "cityId": 654,
    "cityName": "宁乡市",
    "province": "湖南省",
    "longitude": 112.585641,
    "latitude": 28.199766
  },
  {
    "cityId": 655,
    "cityName": "马坡岭街道",
    "province": "湖南省",
    "longitude": 113.0761361,
    "latitude": 28.20068056
  },
  {
    "cityId": 657,
    "cityName": "株洲市",
    "province": "湖南省",
    "longitude": 113.1087102,
    "latitude": 27.86289842
  },
  {
    "cityId": 658,
    "cityName": "醴陵市",
    "province": "湖南省",
    "longitude": 113.4905546,
    "latitude": 27.66313426
  },
  {
    "cityId": 660,
    "cityName": "攸县",
    "province": "湖南省",
    "longitude": 113.3351817,
    "latitude": 26.99697131
  },
  {
    "cityId": 661,
    "cityName": "茶陵县",
    "province": "湖南省",
    "longitude": 113.5405121,
    "latitude": 26.78134935
  },
  {
    "cityId": 662,
    "cityName": "炎陵县",
    "province": "湖南省",
    "longitude": 113.7657932,
    "latitude": 26.49428977
  },
  {
    "cityId": 664,
    "cityName": "湘潭市",
    "province": "湖南省",
    "longitude": 112.9080652,
    "latitude": 27.8666362
  },
  {
    "cityId": 665,
    "cityName": "湘乡市",
    "province": "湖南省",
    "longitude": 112.5181082,
    "latitude": 27.73166286
  },
  {
    "cityId": 667,
    "cityName": "韶山市",
    "province": "湖南省",
    "longitude": 112.8666667,
    "latitude": 28.55
  },
  {
    "cityId": 669,
    "cityName": "衡阳市",
    "province": "湖南省",
    "longitude": 112.6136241,
    "latitude": 26.90188125
  },
  {
    "cityId": 670,
    "cityName": "南岳区",
    "province": "湖南省",
    "longitude": 112.7182159,
    "latitude": 27.23088867
  },
  {
    "cityId": 671,
    "cityName": "耒阳市",
    "province": "湖南省",
    "longitude": 112.8469223,
    "latitude": 26.40902743
  },
  {
    "cityId": 672,
    "cityName": "常宁市",
    "province": "湖南省",
    "longitude": 112.3748614,
    "latitude": 26.40753821
  },
  {
    "cityId": 673,
    "cityName": "衡阳县",
    "province": "湖南省",
    "longitude": 112.3377075,
    "latitude": 26.97740561
  },
  {
    "cityId": 674,
    "cityName": "衡南县",
    "province": "湖南省",
    "longitude": 112.6042692,
    "latitude": 26.86989758
  },
  {
    "cityId": 675,
    "cityName": "衡山县",
    "province": "湖南省",
    "longitude": 112.8550992,
    "latitude": 27.23631046
  },
  {
    "cityId": 676,
    "cityName": "衡东县",
    "province": "湖南省",
    "longitude": 112.944,
    "latitude": 27.088995
  },
  {
    "cityId": 677,
    "cityName": "祁东县",
    "province": "湖南省",
    "longitude": 112.1205424,
    "latitude": 26.7805145
  },
  {
    "cityId": 679,
    "cityName": "邵阳市",
    "province": "湖南省",
    "longitude": 111.4594002,
    "latitude": 27.24266858
  },
  {
    "cityId": 680,
    "cityName": "武冈市",
    "province": "湖南省",
    "longitude": 110.6148934,
    "latitude": 26.7266581
  },
  {
    "cityId": 681,
    "cityName": "邵东县",
    "province": "湖南省",
    "longitude": 111.7304736,
    "latitude": 27.24454401
  },
  {
    "cityId": 682,
    "cityName": "新邵县",
    "province": "湖南省",
    "longitude": 111.4490957,
    "latitude": 27.32586022
  },
  {
    "cityId": 683,
    "cityName": "邵阳县",
    "province": "湖南省",
    "longitude": 111.2549173,
    "latitude": 26.9938236
  },
  {
    "cityId": 684,
    "cityName": "隆回县",
    "province": "湖南省",
    "longitude": 111.0203613,
    "latitude": 27.11824351
  },
  {
    "cityId": 685,
    "cityName": "洞口县",
    "province": "湖南省",
    "longitude": 110.5612942,
    "latitude": 27.06364412
  },
  {
    "cityId": 686,
    "cityName": "绥宁县",
    "province": "湖南省",
    "longitude": 110.145046,
    "latitude": 26.58401539
  },
  {
    "cityId": 687,
    "cityName": "新宁县",
    "province": "湖南省",
    "longitude": 110.835211,
    "latitude": 26.42570477
  },
  {
    "cityId": 688,
    "cityName": "城步苗族自治县",
    "province": "湖南省",
    "longitude": 110.3345138,
    "latitude": 26.40808514
  },
  {
    "cityId": 690,
    "cityName": "岳阳市",
    "province": "湖南省",
    "longitude": 113.0956236,
    "latitude": 29.37808443
  },
  {
    "cityId": 691,
    "cityName": "汨罗市",
    "province": "湖南省",
    "longitude": 113.08084,
    "latitude": 28.81172
  },
  {
    "cityId": 692,
    "cityName": "临湘市",
    "province": "湖南省",
    "longitude": 113.4705766,
    "latitude": 29.47468435
  },
  {
    "cityId": 694,
    "cityName": "华容县",
    "province": "湖南省",
    "longitude": 112.5579901,
    "latitude": 29.52236966
  },
  {
    "cityId": 695,
    "cityName": "湘阴县",
    "province": "湖南省",
    "longitude": 112.8073408,
    "latitude": 28.70147571
  },
  {
    "cityId": 696,
    "cityName": "平江县",
    "province": "湖南省",
    "longitude": 113.5743532,
    "latitude": 28.69922416
  },
  {
    "cityId": 699,
    "cityName": "常德市",
    "province": "湖南省",
    "longitude": 111.6829502,
    "latitude": 29.03096771
  },
  {
    "cityId": 700,
    "cityName": "津市市",
    "province": "湖南省",
    "longitude": 111.8552481,
    "latitude": 29.62666251
  },
  {
    "cityId": 701,
    "cityName": "安乡县",
    "province": "湖南省",
    "longitude": 112.1507578,
    "latitude": 29.41227041
  },
  {
    "cityId": 702,
    "cityName": "汉寿县",
    "province": "湖南省",
    "longitude": 111.9666506,
    "latitude": 28.91668281
  },
  {
    "cityId": 703,
    "cityName": "临澧县",
    "province": "湖南省",
    "longitude": 111.6354931,
    "latitude": 29.43647093
  },
  {
    "cityId": 704,
    "cityName": "澧县",
    "province": "湖南省",
    "longitude": 111.7418926,
    "latitude": 29.63480811
  },
  {
    "cityId": 705,
    "cityName": "桃源县",
    "province": "湖南省",
    "longitude": 111.47138,
    "latitude": 28.8964278
  },
  {
    "cityId": 706,
    "cityName": "石门县",
    "province": "湖南省",
    "longitude": 111.3631171,
    "latitude": 29.58744958
  },
  {
    "cityId": 708,
    "cityName": "张家界市",
    "province": "湖南省",
    "longitude": 110.4752545,
    "latitude": 29.13027787
  },
  {
    "cityId": 709,
    "cityName": "慈利县",
    "province": "湖南省",
    "longitude": 111.12171,
    "latitude": 29.426342
  },
  {
    "cityId": 710,
    "cityName": "桑植县",
    "province": "湖南省",
    "longitude": 110.16237,
    "latitude": 29.392685
  },
  {
    "cityId": 711,
    "cityName": "武陵源区",
    "province": "湖南省",
    "longitude": 110.53,
    "latitude": 29.35
  },
  {
    "cityId": 713,
    "cityName": "益阳市",
    "province": "湖南省",
    "longitude": 112.32701109999999,
    "latitude": 28.58302716
  },
  {
    "cityId": 714,
    "cityName": "沅江市",
    "province": "湖南省",
    "longitude": 112.3727247,
    "latitude": 28.84458052
  },
  {
    "cityId": 715,
    "cityName": "南县",
    "province": "湖南省",
    "longitude": 112.3971882,
    "latitude": 29.36886664
  },
  {
    "cityId": 716,
    "cityName": "桃江县",
    "province": "湖南省",
    "longitude": 112.1118931,
    "latitude": 28.52359257
  },
  {
    "cityId": 717,
    "cityName": "安化县",
    "province": "湖南省",
    "longitude": 111.1975327,
    "latitude": 28.38237603
  },
  {
    "cityId": 718,
    "cityName": "赫山区",
    "province": "湖南省",
    "longitude": 112.37,
    "latitude": 28.6
  },
  {
    "cityId": 720,
    "cityName": "郴州市",
    "province": "湖南省",
    "longitude": 113.0250932,
    "latitude": 25.81173158
  },
  {
    "cityId": 721,
    "cityName": "资兴市",
    "province": "湖南省",
    "longitude": 113.22253,
    "latitude": 25.943691
  },
  {
    "cityId": 722,
    "cityName": "桂阳县",
    "province": "湖南省",
    "longitude": 112.71519,
    "latitude": 25.7373387
  },
  {
    "cityId": 723,
    "cityName": "宜章县",
    "province": "湖南省",
    "longitude": 112.9443736,
    "latitude": 25.39316269
  },
  {
    "cityId": 724,
    "cityName": "永兴县",
    "province": "湖南省",
    "longitude": 113.11494,
    "latitude": 26.133934
  },
  {
    "cityId": 725,
    "cityName": "嘉禾县",
    "province": "湖南省",
    "longitude": 112.3514133,
    "latitude": 25.58128393
  },
  {
    "cityId": 726,
    "cityName": "临武县",
    "province": "湖南省",
    "longitude": 112.5334891,
    "latitude": 25.27647193
  },
  {
    "cityId": 727,
    "cityName": "汝城县",
    "province": "湖南省",
    "longitude": 113.6709911,
    "latitude": 25.54839303
  },
  {
    "cityId": 728,
    "cityName": "桂东县",
    "province": "湖南省",
    "longitude": 113.9372141,
    "latitude": 26.08503879
  },
  {
    "cityId": 729,
    "cityName": "安仁县",
    "province": "湖南省",
    "longitude": 113.2549236,
    "latitude": 26.70694303
  },
  {
    "cityId": 730,
    "cityName": "苏仙区",
    "province": "湖南省",
    "longitude": 113.0424417,
    "latitude": 25.80036944
  },
  {
    "cityId": 732,
    "cityName": "永州市",
    "province": "湖南省",
    "longitude": 111.5758096,
    "latitude": 26.43174148
  },
  {
    "cityId": 734,
    "cityName": "祁阳县",
    "province": "湖南省",
    "longitude": 111.8472273,
    "latitude": 26.58653994
  },
  {
    "cityId": 735,
    "cityName": "东安县",
    "province": "湖南省",
    "longitude": 111.2767787,
    "latitude": 26.39813436
  },
  {
    "cityId": 736,
    "cityName": "双牌县",
    "province": "湖南省",
    "longitude": 111.65299,
    "latitude": 25.963419
  },
  {
    "cityId": 737,
    "cityName": "道县",
    "province": "湖南省",
    "longitude": 111.5748702,
    "latitude": 25.52503852
  },
  {
    "cityId": 738,
    "cityName": "江永县",
    "province": "湖南省",
    "longitude": 111.3229207,
    "latitude": 25.27317383
  },
  {
    "cityId": 739,
    "cityName": "宁远县",
    "province": "湖南省",
    "longitude": 111.9578188,
    "latitude": 25.60659328
  },
  {
    "cityId": 740,
    "cityName": "蓝山县",
    "province": "湖南省",
    "longitude": 112.1763133,
    "latitude": 25.36988389
  },
  {
    "cityId": 741,
    "cityName": "新田县",
    "province": "湖南省",
    "longitude": 112.2025345,
    "latitude": 25.90359393
  },
  {
    "cityId": 742,
    "cityName": "江华瑶族自治县",
    "province": "湖南省",
    "longitude": 111.5835661,
    "latitude": 25.18449342
  },
  {
    "cityId": 744,
    "cityName": "怀化市",
    "province": "湖南省",
    "longitude": 109.9452866,
    "latitude": 27.55272645
  },
  {
    "cityId": 745,
    "cityName": "沅陵县",
    "province": "湖南省",
    "longitude": 110.3926093,
    "latitude": 28.45304493
  },
  {
    "cityId": 746,
    "cityName": "辰溪县",
    "province": "湖南省",
    "longitude": 110.1728501,
    "latitude": 28.0022971
  },
  {
    "cityId": 747,
    "cityName": "溆浦县",
    "province": "湖南省",
    "longitude": 110.581494,
    "latitude": 27.90479052
  },
  {
    "cityId": 748,
    "cityName": "中方县",
    "province": "湖南省",
    "longitude": 109.9071522,
    "latitude": 27.47267013
  },
  {
    "cityId": 749,
    "cityName": "会同县",
    "province": "湖南省",
    "longitude": 109.7052877,
    "latitude": 26.87602446
  },
  {
    "cityId": 750,
    "cityName": "麻阳苗族自治县",
    "province": "湖南省",
    "longitude": 109.795599,
    "latitude": 27.87556178
  },
  {
    "cityId": 751,
    "cityName": "新晃侗族自治县",
    "province": "湖南省",
    "longitude": 109.172677,
    "latitude": 27.35573492
  },
  {
    "cityId": 752,
    "cityName": "芷江侗族自治县",
    "province": "湖南省",
    "longitude": 109.6707879,
    "latitude": 27.44326885
  },
  {
    "cityId": 753,
    "cityName": "靖州苗族侗族自治县",
    "province": "湖南省",
    "longitude": 109.6831993,
    "latitude": 26.57052627
  },
  {
    "cityId": 754,
    "cityName": "通道侗族自治县",
    "province": "湖南省",
    "longitude": 109.765593,
    "latitude": 26.15990744
  },
  {
    "cityId": 756,
    "cityName": "娄底市",
    "province": "湖南省",
    "longitude": 111.9833426,
    "latitude": 27.7499946
  },
  {
    "cityId": 757,
    "cityName": "冷水江市",
    "province": "湖南省",
    "longitude": 111.4171156,
    "latitude": 27.68693863
  },
  {
    "cityId": 758,
    "cityName": "涟源市",
    "province": "湖南省",
    "longitude": 111.6638884,
    "latitude": 27.69717842
  },
  {
    "cityId": 759,
    "cityName": "双峰县",
    "province": "湖南省",
    "longitude": 112.187899,
    "latitude": 27.45275386
  },
  {
    "cityId": 760,
    "cityName": "新化县",
    "province": "湖南省",
    "longitude": 111.287116,
    "latitude": 27.74812257
  },
  {
    "cityId": 761,
    "cityName": "冷水滩区",
    "province": "湖南省",
    "longitude": 111.5673127,
    "latitude": 26.44675768
  },
  {
    "cityId": 763,
    "cityName": "吉首市",
    "province": "湖南省",
    "longitude": 109.7274672,
    "latitude": 28.31623825
  },
  {
    "cityId": 764,
    "cityName": "泸溪县",
    "province": "湖南省",
    "longitude": 110.143177,
    "latitude": 28.27605184
  },
  {
    "cityId": 765,
    "cityName": "凤凰县",
    "province": "湖南省",
    "longitude": 109.5903849,
    "latitude": 27.94912444
  },
  {
    "cityId": 766,
    "cityName": "花垣县",
    "province": "湖南省",
    "longitude": 109.4691299,
    "latitude": 28.5922645
  },
  {
    "cityId": 767,
    "cityName": "保靖县",
    "province": "湖南省",
    "longitude": 109.6417091,
    "latitude": 28.70717726
  },
  {
    "cityId": 768,
    "cityName": "古丈县",
    "province": "湖南省",
    "longitude": 109.940718,
    "latitude": 28.62177132
  },
  {
    "cityId": 769,
    "cityName": "永顺县",
    "province": "湖南省",
    "longitude": 109.8375716,
    "latitude": 29.00160688
  },
  {
    "cityId": 770,
    "cityName": "龙山县",
    "province": "湖南省",
    "longitude": 109.4337954,
    "latitude": 29.45705736
  },
  {
    "cityId": 772,
    "cityName": "黔阳县（现洪江市）",
    "province": "湖南省",
    "longitude": 109.8366694,
    "latitude": 27.20860833
  },
  {
    "cityId": 773,
    "cityName": "洪江市",
    "province": "湖南省",
    "longitude": 109.9884988,
    "latitude": 27.11654645
  },
  {
    "cityId": 776,
    "cityName": "南宁市",
    "province": "广西壮族自治区",
    "longitude": 108.31177,
    "latitude": 22.806543
  },
  {
    "cityId": 777,
    "cityName": "邕宁区",
    "province": "广西壮族自治区",
    "longitude": 108.48778,
    "latitude": 22.753807
  },
  {
    "cityId": 778,
    "cityName": "武鸣区",
    "province": "广西壮族自治区",
    "longitude": 108.27629,
    "latitude": 23.166767
  },
  {
    "cityId": 779,
    "cityName": "隆安县",
    "province": "广西壮族自治区",
    "longitude": 107.68495,
    "latitude": 23.178167
  },
  {
    "cityId": 780,
    "cityName": "马山县",
    "province": "广西壮族自治区",
    "longitude": 108.17472,
    "latitude": 23.714365
  },
  {
    "cityId": 781,
    "cityName": "上林县",
    "province": "广西壮族自治区",
    "longitude": 108.59114,
    "latitude": 23.442163
  },
  {
    "cityId": 782,
    "cityName": "宾阳县",
    "province": "广西壮族自治区",
    "longitude": 108.81004,
    "latitude": 23.216873
  },
  {
    "cityId": 783,
    "cityName": "横县",
    "province": "广西壮族自治区",
    "longitude": 109.26704,
    "latitude": 22.692957
  },
  {
    "cityId": 784,
    "cityName": "南宁城区",
    "province": "广西壮族自治区",
    "longitude": 108.6666667,
    "latitude": 23.33333333
  },
  {
    "cityId": 785,
    "cityName": "江南区",
    "province": "广西壮族自治区",
    "longitude": 108.2731667,
    "latitude": 22.78133333
  },
  {
    "cityId": 787,
    "cityName": "柳州市",
    "province": "广西壮族自治区",
    "longitude": 109.40281,
    "latitude": 24.310406
  },
  {
    "cityId": 788,
    "cityName": "柳江区",
    "province": "广西壮族自治区",
    "longitude": 109.32584,
    "latitude": 24.252417
  },
  {
    "cityId": 789,
    "cityName": "柳城县",
    "province": "广西壮族自治区",
    "longitude": 109.23652,
    "latitude": 24.656956
  },
  {
    "cityId": 790,
    "cityName": "鹿寨县",
    "province": "广西壮族自治区",
    "longitude": 109.73663,
    "latitude": 24.485367
  },
  {
    "cityId": 791,
    "cityName": "融安县",
    "province": "广西壮族自治区",
    "longitude": 109.38817,
    "latitude": 25.217857
  },
  {
    "cityId": 792,
    "cityName": "融水苗族自治县",
    "province": "广西壮族自治区",
    "longitude": 109.24854,
    "latitude": 25.065443
  },
  {
    "cityId": 793,
    "cityName": "三江侗族自治县",
    "province": "广西壮族自治区",
    "longitude": 109.59576,
    "latitude": 25.785355
  },
  {
    "cityId": 795,
    "cityName": "桂林市",
    "province": "广西壮族自治区",
    "longitude": 110.28668,
    "latitude": 25.281883
  },
  {
    "cityId": 796,
    "cityName": "阳朔县",
    "province": "广西壮族自治区",
    "longitude": 110.48363,
    "latitude": 24.777758
  },
  {
    "cityId": 797,
    "cityName": "临桂区",
    "province": "广西壮族自治区",
    "longitude": 110.20719,
    "latitude": 25.236319
  },
  {
    "cityId": 798,
    "cityName": "灵川县",
    "province": "广西壮族自治区",
    "longitude": 110.32415,
    "latitude": 25.412704
  },
  {
    "cityId": 799,
    "cityName": "平乐县",
    "province": "广西壮族自治区",
    "longitude": 110.6465,
    "latitude": 24.635727
  },
  {
    "cityId": 800,
    "cityName": "兴安县",
    "province": "广西壮族自治区",
    "longitude": 110.66587,
    "latitude": 25.613132
  },
  {
    "cityId": 801,
    "cityName": "灌阳县",
    "province": "广西壮族自治区",
    "longitude": 111.14469,
    "latitude": 25.488653
  },
  {
    "cityId": 802,
    "cityName": "荔浦市",
    "province": "广西壮族自治区",
    "longitude": 110.3912,
    "latitude": 24.496014
  },
  {
    "cityId": 803,
    "cityName": "资源县",
    "province": "广西壮族自治区",
    "longitude": 110.63795,
    "latitude": 26.030924
  },
  {
    "cityId": 804,
    "cityName": "永福县",
    "province": "广西壮族自治区",
    "longitude": 109.98013,
    "latitude": 24.981726
  },
  {
    "cityId": 805,
    "cityName": "龙胜各族自治县",
    "province": "广西壮族自治区",
    "longitude": 110.00895,
    "latitude": 25.794008
  },
  {
    "cityId": 806,
    "cityName": "恭城瑶族自治县",
    "province": "广西壮族自治区",
    "longitude": 110.82197,
    "latitude": 24.832979
  },
  {
    "cityId": 807,
    "cityName": "全州县",
    "province": "广西壮族自治区",
    "longitude": 111.0355253,
    "latitude": 25.89024456
  },
  {
    "cityId": 809,
    "cityName": "梧州市",
    "province": "广西壮族自治区",
    "longitude": 111.30595,
    "latitude": 23.48662
  },
  {
    "cityId": 810,
    "cityName": "岑溪市",
    "province": "广西壮族自治区",
    "longitude": 111.00085,
    "latitude": 22.92906
  },
  {
    "cityId": 811,
    "cityName": "苍梧县",
    "province": "广西壮族自治区",
    "longitude": 111.24039,
    "latitude": 23.421976
  },
  {
    "cityId": 812,
    "cityName": "藤县",
    "province": "广西壮族自治区",
    "longitude": 110.90428,
    "latitude": 23.373119
  },
  {
    "cityId": 813,
    "cityName": "蒙山县",
    "province": "广西壮族自治区",
    "longitude": 110.5198,
    "latitude": 24.203249
  },
  {
    "cityId": 814,
    "cityName": "长洲区",
    "province": "广西壮族自治区",
    "longitude": 111.27495,
    "latitude": 23.48573333
  },
  {
    "cityId": 816,
    "cityName": "北海市",
    "province": "广西壮族自治区",
    "longitude": 109.11917,
    "latitude": 21.479797
  },
  {
    "cityId": 817,
    "cityName": "合浦县",
    "province": "广西壮族自治区",
    "longitude": 109.19004,
    "latitude": 21.670145
  },
  {
    "cityId": 818,
    "cityName": "涠洲岛风景区",
    "province": "广西壮族自治区",
    "longitude": 109.1047663,
    "latitude": 21.0441732
  },
  {
    "cityId": 820,
    "cityName": "防城区",
    "province": "广西壮族自治区",
    "longitude": 108.35472,
    "latitude": 21.68713
  },
  {
    "cityId": 821,
    "cityName": "上思县",
    "province": "广西壮族自治区",
    "longitude": 107.97879,
    "latitude": 22.152637
  },
  {
    "cityId": 822,
    "cityName": "防城港市",
    "province": "广西壮族自治区",
    "longitude": 108.35472,
    "latitude": 21.68713
  },
  {
    "cityId": 823,
    "cityName": "东兴市",
    "province": "广西壮族自治区",
    "longitude": 107.9715778,
    "latitude": 21.54770833
  },
  {
    "cityId": 825,
    "cityName": "贺州市",
    "province": "广西壮族自治区",
    "longitude": 111.53455,
    "latitude": 24.417259
  },
  {
    "cityId": 826,
    "cityName": "钟山县",
    "province": "广西壮族自治区",
    "longitude": 111.29557,
    "latitude": 24.526541
  },
  {
    "cityId": 827,
    "cityName": "昭平县",
    "province": "广西壮族自治区",
    "longitude": 110.80361,
    "latitude": 24.169123
  },
  {
    "cityId": 828,
    "cityName": "富川瑶族自治县",
    "province": "广西壮族自治区",
    "longitude": 111.26509,
    "latitude": 24.824177
  },
  {
    "cityId": 830,
    "cityName": "来宾市",
    "province": "广西壮族自治区",
    "longitude": 109.23294,
    "latitude": 23.73144
  },
  {
    "cityId": 831,
    "cityName": "合山市",
    "province": "广西壮族自治区",
    "longitude": 108.87385,
    "latitude": 23.801832
  },
  {
    "cityId": 832,
    "cityName": "象州县",
    "province": "广西壮族自治区",
    "longitude": 109.68246,
    "latitude": 23.958055
  },
  {
    "cityId": 833,
    "cityName": "武宣县",
    "province": "广西壮族自治区",
    "longitude": 109.65503,
    "latitude": 23.596741
  },
  {
    "cityId": 834,
    "cityName": "忻城县",
    "province": "广西壮族自治区",
    "longitude": 108.66047,
    "latitude": 24.064043
  },
  {
    "cityId": 835,
    "cityName": "金秀瑶族自治县",
    "province": "广西壮族自治区",
    "longitude": 110.1803,
    "latitude": 24.130014
  },
  {
    "cityId": 837,
    "cityName": "贵港市",
    "province": "广西壮族自治区",
    "longitude": 109.60844,
    "latitude": 23.099092
  },
  {
    "cityId": 838,
    "cityName": "桂平市",
    "province": "广西壮族自治区",
    "longitude": 110.07166,
    "latitude": 23.394571
  },
  {
    "cityId": 839,
    "cityName": "平南县",
    "province": "广西壮族自治区",
    "longitude": 110.39474,
    "latitude": 23.54998
  },
  {
    "cityId": 841,
    "cityName": "玉林市",
    "province": "广西壮族自治区",
    "longitude": 110.14147,
    "latitude": 22.631897
  },
  {
    "cityId": 842,
    "cityName": "北流市",
    "province": "广西壮族自治区",
    "longitude": 110.34752,
    "latitude": 22.714184
  },
  {
    "cityId": 843,
    "cityName": "容县",
    "province": "广西壮族自治区",
    "longitude": 110.55103,
    "latitude": 22.863588
  },
  {
    "cityId": 844,
    "cityName": "陆川县",
    "province": "广西壮族自治区",
    "longitude": 110.26681,
    "latitude": 22.325253
  },
  {
    "cityId": 845,
    "cityName": "博白县",
    "province": "广西壮族自治区",
    "longitude": 109.97141,
    "latitude": 22.275869
  },
  {
    "cityId": 846,
    "cityName": "兴业县",
    "province": "广西壮族自治区",
    "longitude": 109.87,
    "latitude": 22.75
  },
  {
    "cityId": 848,
    "cityName": "百色市",
    "province": "广西壮族自治区",
    "longitude": 106.61211,
    "latitude": 23.901583
  },
  {
    "cityId": 849,
    "cityName": "凌云县",
    "province": "广西壮族自治区",
    "longitude": 106.57572,
    "latitude": 24.348549
  },
  {
    "cityId": 850,
    "cityName": "平果县",
    "province": "广西壮族自治区",
    "longitude": 107.57001,
    "latitude": 23.3248
  },
  {
    "cityId": 851,
    "cityName": "西林县",
    "province": "广西壮族自治区",
    "longitude": 105.09049,
    "latitude": 24.497915
  },
  {
    "cityId": 852,
    "cityName": "乐业县",
    "province": "广西壮族自治区",
    "longitude": 106.56207,
    "latitude": 24.792288
  },
  {
    "cityId": 853,
    "cityName": "德保县",
    "province": "广西壮族自治区",
    "longitude": 106.60835,
    "latitude": 23.332321
  },
  {
    "cityId": 854,
    "cityName": "田林县",
    "province": "广西壮族自治区",
    "longitude": 106.23518,
    "latitude": 24.30167
  },
  {
    "cityId": 855,
    "cityName": "田阳县",
    "province": "广西壮族自治区",
    "longitude": 106.90867,
    "latitude": 23.73387
  },
  {
    "cityId": 856,
    "cityName": "靖西市",
    "province": "广西壮族自治区",
    "longitude": 106.41589,
    "latitude": 23.142054
  },
  {
    "cityId": 857,
    "cityName": "田东县",
    "province": "广西壮族自治区",
    "longitude": 107.11416,
    "latitude": 23.605627
  },
  {
    "cityId": 858,
    "cityName": "那坡县",
    "province": "广西壮族自治区",
    "longitude": 105.84009,
    "latitude": 23.412697
  },
  {
    "cityId": 859,
    "cityName": "隆林各族自治县",
    "province": "广西壮族自治区",
    "longitude": 105.33133,
    "latitude": 24.78113
  },
  {
    "cityId": 861,
    "cityName": "河池市",
    "province": "广西壮族自治区",
    "longitude": 108.05163,
    "latitude": 24.696892
  },
  {
    "cityId": 862,
    "cityName": "宜州区",
    "province": "广西壮族自治区",
    "longitude": 108.65588,
    "latitude": 24.49073
  },
  {
    "cityId": 863,
    "cityName": "天峨县",
    "province": "广西壮族自治区",
    "longitude": 107.15588,
    "latitude": 25.008724
  },
  {
    "cityId": 864,
    "cityName": "凤山县",
    "province": "广西壮族自治区",
    "longitude": 107.0479,
    "latitude": 24.542965
  },
  {
    "cityId": 865,
    "cityName": "南丹县",
    "province": "广西壮族自治区",
    "longitude": 107.53483,
    "latitude": 24.983593
  },
  {
    "cityId": 866,
    "cityName": "东兰县",
    "province": "广西壮族自治区",
    "longitude": 107.37263,
    "latitude": 24.520552
  },
  {
    "cityId": 867,
    "cityName": "都安瑶族自治县",
    "province": "广西壮族自治区",
    "longitude": 108.09344,
    "latitude": 23.934784
  },
  {
    "cityId": 868,
    "cityName": "罗城仫佬族自治县",
    "province": "广西壮族自治区",
    "longitude": 108.89851,
    "latitude": 24.781307
  },
  {
    "cityId": 869,
    "cityName": "巴马瑶族自治县",
    "province": "广西壮族自治区",
    "longitude": 107.24593,
    "latitude": 24.146502
  },
  {
    "cityId": 870,
    "cityName": "环江毛南族自治县",
    "province": "广西壮族自治区",
    "longitude": 108.25638,
    "latitude": 24.829609
  },
  {
    "cityId": 871,
    "cityName": "大化瑶族自治县",
    "province": "广西壮族自治区",
    "longitude": 107.99053,
    "latitude": 23.749001
  },
  {
    "cityId": 873,
    "cityName": "钦州市",
    "province": "广西壮族自治区",
    "longitude": 108.6147,
    "latitude": 21.949869
  },
  {
    "cityId": 874,
    "cityName": "灵山县",
    "province": "广西壮族自治区",
    "longitude": 109.28741,
    "latitude": 22.434591
  },
  {
    "cityId": 875,
    "cityName": "浦北县",
    "province": "广西壮族自治区",
    "longitude": 109.54034,
    "latitude": 22.269863
  },
  {
    "cityId": 877,
    "cityName": "崇左市",
    "province": "广西壮族自治区",
    "longitude": 107.35506,
    "latitude": 22.420197
  },
  {
    "cityId": 878,
    "cityName": "宁明县",
    "province": "广西壮族自治区",
    "longitude": 107.06284,
    "latitude": 22.138447
  },
  {
    "cityId": 879,
    "cityName": "扶绥县",
    "province": "广西壮族自治区",
    "longitude": 107.90538,
    "latitude": 22.643337
  },
  {
    "cityId": 880,
    "cityName": "龙州县",
    "province": "广西壮族自治区",
    "longitude": 106.85036,
    "latitude": 22.351665
  },
  {
    "cityId": 881,
    "cityName": "大新县",
    "province": "广西壮族自治区",
    "longitude": 107.19543,
    "latitude": 22.841093
  },
  {
    "cityId": 882,
    "cityName": "天等县",
    "province": "广西壮族自治区",
    "longitude": 107.1324,
    "latitude": 23.084743
  },
  {
    "cityId": 883,
    "cityName": "凭祥市",
    "province": "广西壮族自治区",
    "longitude": 106.7695546,
    "latitude": 22.09824
  },
  {
    "cityId": 886,
    "cityName": "广州市",
    "province": "广东省",
    "longitude": 113.264432,
    "latitude": 23.129173
  },
  {
    "cityId": 887,
    "cityName": "番禺区",
    "province": "广东省",
    "longitude": 113.3661,
    "latitude": 22.943789
  },
  {
    "cityId": 888,
    "cityName": "花都区",
    "province": "广东省",
    "longitude": 113.220126,
    "latitude": 23.404286
  },
  {
    "cityId": 889,
    "cityName": "增城区",
    "province": "广东省",
    "longitude": 113.811107,
    "latitude": 23.26047
  },
  {
    "cityId": 890,
    "cityName": "从化区",
    "province": "广东省",
    "longitude": 113.58632,
    "latitude": 23.548445
  },
  {
    "cityId": 892,
    "cityName": "深圳市",
    "province": "广东省",
    "longitude": 114.058229,
    "latitude": 22.543137
  },
  {
    "cityId": 895,
    "cityName": "珠海市",
    "province": "广东省",
    "longitude": 113.576576,
    "latitude": 22.27099
  },
  {
    "cityId": 896,
    "cityName": "斗门区",
    "province": "广东省",
    "longitude": 113.29631,
    "latitude": 22.209193
  },
  {
    "cityId": 897,
    "cityName": "黄茅洲镇",
    "province": "湖南省",
    "longitude": 114.3948639,
    "latitude": 22.44836111
  },
  {
    "cityId": 898,
    "cityName": "金湾区",
    "province": "广东省",
    "longitude": 113.363373,
    "latitude": 22.146808
  },
  {
    "cityId": 900,
    "cityName": "汕头市",
    "province": "广东省",
    "longitude": 116.6757898,
    "latitude": 23.35548137
  },
  {
    "cityId": 901,
    "cityName": "潮阳区",
    "province": "广东省",
    "longitude": 116.59406,
    "latitude": 23.260954
  },
  {
    "cityId": 902,
    "cityName": "澄海区",
    "province": "广东省",
    "longitude": 116.76804,
    "latitude": 23.463154
  },
  {
    "cityId": 903,
    "cityName": "南澳县",
    "province": "广东省",
    "longitude": 117.01698,
    "latitude": 23.42544
  },
  {
    "cityId": 905,
    "cityName": "韶关市",
    "province": "广东省",
    "longitude": 113.5888241,
    "latitude": 24.80469383
  },
  {
    "cityId": 906,
    "cityName": "曲江区",
    "province": "广东省",
    "longitude": 113.59617,
    "latitude": 24.683868
  },
  {
    "cityId": 907,
    "cityName": "乐昌市",
    "province": "广东省",
    "longitude": 113.34679,
    "latitude": 25.134874
  },
  {
    "cityId": 908,
    "cityName": "南雄市",
    "province": "广东省",
    "longitude": 114.30209,
    "latitude": 25.118843
  },
  {
    "cityId": 909,
    "cityName": "始兴县",
    "province": "广东省",
    "longitude": 114.06315,
    "latitude": 24.945763
  },
  {
    "cityId": 910,
    "cityName": "仁化县",
    "province": "广东省",
    "longitude": 113.74312,
    "latitude": 25.090054
  },
  {
    "cityId": 911,
    "cityName": "翁源县",
    "province": "广东省",
    "longitude": 114.1319,
    "latitude": 24.344467
  },
  {
    "cityId": 912,
    "cityName": "新丰县",
    "province": "广东省",
    "longitude": 114.20171,
    "latitude": 24.062494
  },
  {
    "cityId": 913,
    "cityName": "乳源瑶族自治县",
    "province": "广东省",
    "longitude": 113.26926,
    "latitude": 24.784229
  },
  {
    "cityId": 914,
    "cityName": "浈江区",
    "province": "广东省",
    "longitude": 113.6110972,
    "latitude": 24.80438056
  },
  {
    "cityId": 915,
    "cityName": "武江区",
    "province": "广东省",
    "longitude": 113.587775,
    "latitude": 24.792925
  },
  {
    "cityId": 917,
    "cityName": "佛山市",
    "province": "广东省",
    "longitude": 113.121428,
    "latitude": 23.02152
  },
  {
    "cityId": 918,
    "cityName": "顺德区",
    "province": "广东省",
    "longitude": 113.293454,
    "latitude": 22.805154
  },
  {
    "cityId": 919,
    "cityName": "三水区",
    "province": "广东省",
    "longitude": 112.896526,
    "latitude": 23.155923
  },
  {
    "cityId": 920,
    "cityName": "高明区",
    "province": "广东省",
    "longitude": 112.892579,
    "latitude": 22.900283
  },
  {
    "cityId": 921,
    "cityName": "南海区",
    "province": "广东省",
    "longitude": 113.143312,
    "latitude": 23.028891
  },
  {
    "cityId": 923,
    "cityName": "江门市",
    "province": "广东省",
    "longitude": 113.082002,
    "latitude": 22.578646
  },
  {
    "cityId": 924,
    "cityName": "新会区",
    "province": "广东省",
    "longitude": 113.034308,
    "latitude": 22.458279
  },
  {
    "cityId": 925,
    "cityName": "台山市",
    "province": "广东省",
    "longitude": 112.79442,
    "latitude": 22.251373
  },
  {
    "cityId": 926,
    "cityName": "开平市",
    "province": "广东省",
    "longitude": 112.69155,
    "latitude": 22.37538
  },
  {
    "cityId": 927,
    "cityName": "鹤山市",
    "province": "广东省",
    "longitude": 112.964323,
    "latitude": 22.76528
  },
  {
    "cityId": 928,
    "cityName": "恩平市",
    "province": "广东省",
    "longitude": 112.30747,
    "latitude": 22.191948
  },
  {
    "cityId": 929,
    "cityName": "上川岛风景区",
    "province": "广东省",
    "longitude": 112.7940639,
    "latitude": 22.251925
  },
  {
    "cityId": 930,
    "cityName": "蓬江区",
    "province": "广东省",
    "longitude": 113.0784972,
    "latitude": 22.59515556
  },
  {
    "cityId": 931,
    "cityName": "江海区",
    "province": "广东省",
    "longitude": 113.1116111,
    "latitude": 22.560475
  },
  {
    "cityId": 933,
    "cityName": "茂名市",
    "province": "广东省",
    "longitude": 110.8914023,
    "latitude": 21.67064498
  },
  {
    "cityId": 934,
    "cityName": "高州市",
    "province": "广东省",
    "longitude": 110.85381,
    "latitude": 21.919214
  },
  {
    "cityId": 935,
    "cityName": "化州市",
    "province": "广东省",
    "longitude": 110.62531,
    "latitude": 21.654028
  },
  {
    "cityId": 936,
    "cityName": "信宜市",
    "province": "广东省",
    "longitude": 110.9388,
    "latitude": 22.363495
  },
  {
    "cityId": 937,
    "cityName": "电白县（现电白区）",
    "province": "广东省",
    "longitude": 111.00157,
    "latitude": 21.511053
  },
  {
    "cityId": 938,
    "cityName": "电白区",
    "province": "广东省",
    "longitude": 111.0497861,
    "latitude": 21.46463056
  },
  {
    "cityId": 940,
    "cityName": "湛江市",
    "province": "广东省",
    "longitude": 110.3842085,
    "latitude": 21.18997161
  },
  {
    "cityId": 941,
    "cityName": "廉江市",
    "province": "广东省",
    "longitude": 110.28332,
    "latitude": 21.613159
  },
  {
    "cityId": 942,
    "cityName": "雷州市",
    "province": "广东省",
    "longitude": 110.08791,
    "latitude": 20.901958
  },
  {
    "cityId": 943,
    "cityName": "吴川市",
    "province": "广东省",
    "longitude": 110.77861,
    "latitude": 21.44651
  },
  {
    "cityId": 944,
    "cityName": "遂溪县",
    "province": "广东省",
    "longitude": 110.25089,
    "latitude": 21.38298
  },
  {
    "cityId": 945,
    "cityName": "徐闻县",
    "province": "广东省",
    "longitude": 110.16278,
    "latitude": 20.329676
  },
  {
    "cityId": 946,
    "cityName": "麻章区",
    "province": "广东省",
    "longitude": 110.3342,
    "latitude": 21.26333889
  },
  {
    "cityId": 947,
    "cityName": "坡头区",
    "province": "广东省",
    "longitude": 110.4553333,
    "latitude": 21.24472222
  },
  {
    "cityId": 948,
    "cityName": "赤坎区",
    "province": "广东省",
    "longitude": 110.365925,
    "latitude": 21.26606389
  },
  {
    "cityId": 949,
    "cityName": "霞山区",
    "province": "广东省",
    "longitude": 110.3980694,
    "latitude": 21.19171944
  },
  {
    "cityId": 951,
    "cityName": "肇庆市",
    "province": "广东省",
    "longitude": 112.465138,
    "latitude": 23.04715
  },
  {
    "cityId": 952,
    "cityName": "高要区",
    "province": "广东省",
    "longitude": 112.457826,
    "latitude": 23.025353
  },
  {
    "cityId": 953,
    "cityName": "四会市",
    "province": "广东省",
    "longitude": 112.734027,
    "latitude": 23.326323
  },
  {
    "cityId": 954,
    "cityName": "广宁县",
    "province": "广东省",
    "longitude": 112.43132,
    "latitude": 23.642736
  },
  {
    "cityId": 955,
    "cityName": "怀集县",
    "province": "广东省",
    "longitude": 112.17924,
    "latitude": 23.912186
  },
  {
    "cityId": 956,
    "cityName": "封开县",
    "province": "广东省",
    "longitude": 111.5081,
    "latitude": 23.445099
  },
  {
    "cityId": 957,
    "cityName": "德庆县",
    "province": "广东省",
    "longitude": 111.77102,
    "latitude": 23.146791
  },